{"type":"FeatureCollection","features":[{"type":"Feature","geometry":{"type":"Point","coordinates":[-1.2720185831873299,49.59929335711731]},"properties":{"name":"Saint-Vaast-la-Hougue","population":1729,"contributions":3,"per_cent":0.174,"insee":"50562"}},{"type":"Feature","geometry":{"type":"Point","coordinates":[6.201368173917152,45.95306936108332]},"properties":{"name":"Villaz","population":3387,"contributions":12,"per_cent":0.354,"insee":"74303"}},{"type":"Feature","geometry":{"type":"Point","coordinates":[5.104660099501778,47.2921370356089]},"properties":{"name":"Sennecey-l\u00e8s-Dijon","population":2003,"contributions":10,"per_cent":0.499,"insee":"21605"}},{"type":"Feature","geometry":{"type":"Point","coordinates":[-1.3636783309999243,43.81186932023279]},"properties":{"name":"Messanges","population":972,"contributions":12,"per_cent":1.235,"insee":"40181"}},{"type":"Feature","geometry":{"type":"Point","coordinates":[2.3585637980323755,49.31313202473877]},"properties":{"name":"Bury","population":2966,"contributions":1,"per_cent":0.034,"insee":"60116"}},{"type":"Feature","geometry":{"type":"Point","coordinates":[-3.2881970931368363,48.09262449269591]},"properties":{"name":"Plo\u00ebrdut","population":1213,"contributions":2,"per_cent":0.165,"insee":"56163"}},{"type":"Feature","geometry":{"type":"Point","coordinates":[4.710963179434238,46.01854915389821]},"properties":{"name":"Arnas","population":3847,"contributions":4,"per_cent":0.104,"insee":"69013"}},{"type":"Feature","geometry":{"type":"Point","coordinates":[6.604225360872637,43.9151555289864]},"properties":{"name":"Vergons","population":109,"contributions":1,"per_cent":0.917,"insee":"04236"}},{"type":"Feature","geometry":{"type":"Point","coordinates":[0.23832495436983678,49.412777660902194]},"properties":{"name":"Honfleur","population":7138,"contributions":60,"per_cent":0.841,"insee":"14333"}},{"type":"Feature","geometry":{"type":"Point","coordinates":[-0.3983450871905853,49.25088360009663]},"properties":{"name":"Anisy","population":734,"contributions":4,"per_cent":0.545,"insee":"14015"}},{"type":"Feature","geometry":{"type":"Point","coordinates":[-0.3688509022193004,48.08902232748197]},"properties":{"name":"Sainte-Suzanne-et-Chammes","population":1282,"contributions":2,"per_cent":0.156,"insee":"53255"}},{"type":"Feature","geometry":{"type":"Point","coordinates":[-0.7359534690586322,48.86685239836091]},"properties":{"name":"Valdalli\u00e8re","population":5853,"contributions":2,"per_cent":0.034,"insee":"14726"}},{"type":"Feature","geometry":{"type":"Point","coordinates":[7.639682226759151,48.963789841565195]},"properties":{"name":"Niederbronn-les-Bains","population":4393,"contributions":3,"per_cent":0.068,"insee":"67324"}},{"type":"Feature","geometry":{"type":"Point","coordinates":[4.929622573735432,49.69681890433342]},"properties":{"name":"Sedan","population":16193,"contributions":7,"per_cent":0.043,"insee":"08409"}},{"type":"Feature","geometry":{"type":"Point","coordinates":[3.2620286360979174,48.89712975707277]},"properties":{"name":"Boitron","population":362,"contributions":1,"per_cent":0.276,"insee":"77043"}},{"type":"Feature","geometry":{"type":"Point","coordinates":[4.44228403088382,46.64044769327734]},"properties":{"name":"Gourdon","population":895,"contributions":2,"per_cent":0.223,"insee":"71222"}},{"type":"Feature","geometry":{"type":"Point","coordinates":[-0.21261164535296884,47.141328810645355]},"properties":{"name":"Vaudelnay","population":1143,"contributions":33,"per_cent":2.887,"insee":"49364"}},{"type":"Feature","geometry":{"type":"Point","coordinates":[4.309173718592588,48.9459668323892]},"properties":{"name":"Fagni\u00e8res","population":4838,"contributions":11,"per_cent":0.227,"insee":"51242"}},{"type":"Feature","geometry":{"type":"Point","coordinates":[1.7092652560628103,45.42704209835514]},"properties":{"name":"Chamboulive","population":1195,"contributions":1,"per_cent":0.084,"insee":"19037"}},{"type":"Feature","geometry":{"type":"Point","coordinates":[3.181665366599167,46.13239083543538]},"properties":{"name":"Mazerier","population":304,"contributions":1,"per_cent":0.329,"insee":"03166"}},{"type":"Feature","geometry":{"type":"Point","coordinates":[1.3899803493227394,48.371109512631726]},"properties":{"name":"Meslay-le-Grenet","population":352,"contributions":1,"per_cent":0.284,"insee":"28245"}},{"type":"Feature","geometry":{"type":"Point","coordinates":[0.7760954891928704,47.352610980603636]},"properties":{"name":"Lar\u00e7ay","population":2486,"contributions":11,"per_cent":0.442,"insee":"37124"}},{"type":"Feature","geometry":{"type":"Point","coordinates":[4.840156546427496,46.30595537863475]},"properties":{"name":"Saint-Laurent-sur-Sa\u00f4ne","population":1689,"contributions":5,"per_cent":0.296,"insee":"01370"}},{"type":"Feature","geometry":{"type":"Point","coordinates":[-0.6002305383158819,44.88881012145231]},"properties":{"name":"Bruges","population":18316,"contributions":74,"per_cent":0.404,"insee":"33075"}},{"type":"Feature","geometry":{"type":"Point","coordinates":[5.111985218829016,45.09502282301822]},"properties":{"name":"Triors","population":585,"contributions":1,"per_cent":0.171,"insee":"26355"}},{"type":"Feature","geometry":{"type":"Point","coordinates":[4.420970154381061,45.66198316964431]},"properties":{"name":"Gr\u00e9zieu-le-March\u00e9","population":821,"contributions":1,"per_cent":0.122,"insee":"69095"}},{"type":"Feature","geometry":{"type":"Point","coordinates":[4.8812085572649035,45.70426261678241]},"properties":{"name":"V\u00e9nissieux","population":67129,"contributions":92,"per_cent":0.137,"insee":"69259"}},{"type":"Feature","geometry":{"type":"Point","coordinates":[2.1671486794553867,50.85621586467242]},"properties":{"name":"Ruminghem","population":1641,"contributions":1,"per_cent":0.061,"insee":"62730"}},{"type":"Feature","geometry":{"type":"Point","coordinates":[-0.28800270465271416,49.24401029253891]},"properties":{"name":"B\u00e9nouville","population":2046,"contributions":3,"per_cent":0.147,"insee":"14060"}},{"type":"Feature","geometry":{"type":"Point","coordinates":[1.9050159466750864,49.09093112999927]},"properties":{"name":"Th\u00e9m\u00e9ricourt","population":298,"contributions":1,"per_cent":0.336,"insee":"95610"}},{"type":"Feature","geometry":{"type":"Point","coordinates":[-1.3860542814293046,43.361904001363136]},"properties":{"name":"Cambo-les-Bains","population":6609,"contributions":2,"per_cent":0.03,"insee":"64160"}},{"type":"Feature","geometry":{"type":"Point","coordinates":[2.819962850994922,43.921377616434725]},"properties":{"name":"Vabres-l'Abbaye","population":1204,"contributions":2,"per_cent":0.166,"insee":"12286"}},{"type":"Feature","geometry":{"type":"Point","coordinates":[-0.7039649510472408,48.02907306029814]},"properties":{"name":"Forc\u00e9","population":1095,"contributions":5,"per_cent":0.457,"insee":"53099"}},{"type":"Feature","geometry":{"type":"Point","coordinates":[-1.969131139990741,47.76443676476582]},"properties":{"name":"Saint-Just","population":1062,"contributions":3,"per_cent":0.282,"insee":"35285"}},{"type":"Feature","geometry":{"type":"Point","coordinates":[4.618364005801744,45.65711114377999]},"properties":{"name":"Rontalon","population":1153,"contributions":2,"per_cent":0.173,"insee":"69170"}},{"type":"Feature","geometry":{"type":"Point","coordinates":[5.955759353038202,47.20165273544982]},"properties":{"name":"Avanne-Aveney","population":2244,"contributions":2,"per_cent":0.089,"insee":"25036"}},{"type":"Feature","geometry":{"type":"Point","coordinates":[-0.16030554823761728,47.67571879374395]},"properties":{"name":"Bazouges Cr\u00e9 sur Loir","population":2021,"contributions":1,"per_cent":0.049,"insee":"72025"}},{"type":"Feature","geometry":{"type":"Point","coordinates":[4.623880560106513,44.70687498889726]},"properties":{"name":"Alissas","population":1468,"contributions":3,"per_cent":0.204,"insee":"07008"}},{"type":"Feature","geometry":{"type":"Point","coordinates":[3.4662326669971564,47.82867885137975]},"properties":{"name":"Charbuy","population":1860,"contributions":4,"per_cent":0.215,"insee":"89083"}},{"type":"Feature","geometry":{"type":"Point","coordinates":[-4.031588842965409,48.6998675399381]},"properties":{"name":"Santec","population":2401,"contributions":2,"per_cent":0.083,"insee":"29273"}},{"type":"Feature","geometry":{"type":"Point","coordinates":[4.431717700241432,45.38635928623825]},"properties":{"name":"Planfoy","population":1053,"contributions":6,"per_cent":0.57,"insee":"42172"}},{"type":"Feature","geometry":{"type":"Point","coordinates":[7.446847597907419,47.90980767844602]},"properties":{"name":"Hirtzfelden","population":1283,"contributions":1,"per_cent":0.078,"insee":"68140"}},{"type":"Feature","geometry":{"type":"Point","coordinates":[-1.0654348473760908,44.345109623313924]},"properties":{"name":"Parentis-en-Born","population":6466,"contributions":55,"per_cent":0.851,"insee":"40217"}},{"type":"Feature","geometry":{"type":"Point","coordinates":[1.5456654755503711,48.543441535665224]},"properties":{"name":"Chartainvilliers","population":719,"contributions":5,"per_cent":0.695,"insee":"28084"}},{"type":"Feature","geometry":{"type":"Point","coordinates":[4.832016965612382,45.28907414154981]},"properties":{"name":"Saint-Rambert-d'Albon","population":6641,"contributions":15,"per_cent":0.226,"insee":"26325"}},{"type":"Feature","geometry":{"type":"Point","coordinates":[2.82662559335497,50.512514990672685]},"properties":{"name":"Douvrin","population":5544,"contributions":6,"per_cent":0.108,"insee":"62276"}},{"type":"Feature","geometry":{"type":"Point","coordinates":[2.3598088499044536,49.54672474495622]},"properties":{"name":"Wavignies","population":1242,"contributions":1,"per_cent":0.081,"insee":"60701"}},{"type":"Feature","geometry":{"type":"Point","coordinates":[3.092433489040743,50.60484272328399]},"properties":{"name":"Ronchin","population":19477,"contributions":96,"per_cent":0.493,"insee":"59507"}},{"type":"Feature","geometry":{"type":"Point","coordinates":[6.25643401692092,46.917263644533]},"properties":{"name":"Chaffois","population":1027,"contributions":10,"per_cent":0.974,"insee":"25110"}},{"type":"Feature","geometry":{"type":"Point","coordinates":[2.2320573707588975,47.885167186244736]},"properties":{"name":"Ch\u00e2teauneuf-sur-Loire","population":8176,"contributions":15,"per_cent":0.183,"insee":"45082"}},{"type":"Feature","geometry":{"type":"Point","coordinates":[3.426432502783181,45.724976836195765]},"properties":{"name":"Bongheat","population":427,"contributions":4,"per_cent":0.937,"insee":"63044"}},{"type":"Feature","geometry":{"type":"Point","coordinates":[6.8490369685177495,47.595790710594954]},"properties":{"name":"Botans","population":237,"contributions":1,"per_cent":0.422,"insee":"90015"}},{"type":"Feature","geometry":{"type":"Point","coordinates":[3.020198745636961,43.16503376895376]},"properties":{"name":"Narbonne","population":55375,"contributions":439,"per_cent":0.793,"insee":"11262"}},{"type":"Feature","geometry":{"type":"Point","coordinates":[1.6650155758430198,50.27856117629631]},"properties":{"name":"Rue","population":3096,"contributions":1,"per_cent":0.032,"insee":"80688"}},{"type":"Feature","geometry":{"type":"Point","coordinates":[6.389068972635302,49.006889612766614]},"properties":{"name":"R\u00e9milly","population":2003,"contributions":13,"per_cent":0.649,"insee":"57572"}},{"type":"Feature","geometry":{"type":"Point","coordinates":[2.0231084114002145,47.90260416007636]},"properties":{"name":"Ch\u00e9cy","population":8636,"contributions":90,"per_cent":1.042,"insee":"45089"}},{"type":"Feature","geometry":{"type":"Point","coordinates":[5.639043782231021,46.89459210764709]},"properties":{"name":"Montholier","population":365,"contributions":2,"per_cent":0.548,"insee":"39354"}},{"type":"Feature","geometry":{"type":"Point","coordinates":[3.052790328564231,45.961418907373066]},"properties":{"name":"Teilh\u00e8de","population":471,"contributions":1,"per_cent":0.212,"insee":"63427"}},{"type":"Feature","geometry":{"type":"Point","coordinates":[0.23351093840913273,44.82423395995843]},"properties":{"name":"Pineuilh","population":4432,"contributions":5,"per_cent":0.113,"insee":"33324"}},{"type":"Feature","geometry":{"type":"Point","coordinates":[3.9184860658592804,43.83030412350266]},"properties":{"name":"Sauteyrargues","population":408,"contributions":2,"per_cent":0.49,"insee":"34297"}},{"type":"Feature","geometry":{"type":"Point","coordinates":[3.1822407469803644,49.74617429263962]},"properties":{"name":"Saint-Simon","population":639,"contributions":1,"per_cent":0.156,"insee":"02694"}},{"type":"Feature","geometry":{"type":"Point","coordinates":[7.459761871168186,49.04751873541186]},"properties":{"name":"Bitche","population":5025,"contributions":1,"per_cent":0.02,"insee":"57089"}},{"type":"Feature","geometry":{"type":"Point","coordinates":[-0.3156533928854466,45.82514041076993]},"properties":{"name":"Thors","population":462,"contributions":2,"per_cent":0.433,"insee":"17446"}},{"type":"Feature","geometry":{"type":"Point","coordinates":[3.575886458524094,50.293712007499856]},"properties":{"name":"Maresches","population":816,"contributions":3,"per_cent":0.368,"insee":"59381"}},{"type":"Feature","geometry":{"type":"Point","coordinates":[3.2380917669008302,48.51433285703405]},"properties":{"name":"Longueville","population":1785,"contributions":1,"per_cent":0.056,"insee":"77260"}},{"type":"Feature","geometry":{"type":"Point","coordinates":[3.0625146123646148,45.92073149951818]},"properties":{"name":"Ch\u00e2tel-Guyon","population":6195,"contributions":59,"per_cent":0.952,"insee":"63103"}},{"type":"Feature","geometry":{"type":"Point","coordinates":[5.4201468532519,47.10206317464044]},"properties":{"name":"Champvans","population":1428,"contributions":5,"per_cent":0.35,"insee":"39101"}},{"type":"Feature","geometry":{"type":"Point","coordinates":[5.613078268510996,46.154014932863184]},"properties":{"name":"Nantua","population":3410,"contributions":43,"per_cent":1.261,"insee":"01269"}},{"type":"Feature","geometry":{"type":"Point","coordinates":[1.5289148627287803,43.64227320409052]},"properties":{"name":"Montrab\u00e9","population":4089,"contributions":11,"per_cent":0.269,"insee":"31389"}},{"type":"Feature","geometry":{"type":"Point","coordinates":[1.0355373080761314,49.511077504836045]},"properties":{"name":"Le Houlme","population":4033,"contributions":58,"per_cent":1.438,"insee":"76366"}},{"type":"Feature","geometry":{"type":"Point","coordinates":[2.274133154183928,48.546517344907514]},"properties":{"name":"Cheptainville","population":2125,"contributions":1,"per_cent":0.047,"insee":"91156"}},{"type":"Feature","geometry":{"type":"Point","coordinates":[-1.3834115154426696,46.83288309881385]},"properties":{"name":"Saint-Denis-la-Chevasse","population":2349,"contributions":4,"per_cent":0.17,"insee":"85208"}},{"type":"Feature","geometry":{"type":"Point","coordinates":[8.015625310257102,48.91708965847959]},"properties":{"name":"Buhl","population":518,"contributions":1,"per_cent":0.193,"insee":"67069"}},{"type":"Feature","geometry":{"type":"Point","coordinates":[-0.2601918233567906,49.15431903726583]},"properties":{"name":"Cagny","population":1944,"contributions":36,"per_cent":1.852,"insee":"14119"}},{"type":"Feature","geometry":{"type":"Point","coordinates":[1.3477286883941342,49.49666580340837]},"properties":{"name":"Saint-Aignan-sur-Ry","population":350,"contributions":1,"per_cent":0.286,"insee":"76554"}},{"type":"Feature","geometry":{"type":"Point","coordinates":[4.09092890441569,46.01742732856789]},"properties":{"name":"Le Coteau","population":6881,"contributions":10,"per_cent":0.145,"insee":"42071"}},{"type":"Feature","geometry":{"type":"Point","coordinates":[3.1934106528026445,45.718009570641655]},"properties":{"name":"Le Cendre","population":5489,"contributions":71,"per_cent":1.293,"insee":"63069"}},{"type":"Feature","geometry":{"type":"Point","coordinates":[1.4529289351681067,48.435136352816]},"properties":{"name":"Luc\u00e9","population":15435,"contributions":74,"per_cent":0.479,"insee":"28218"}},{"type":"Feature","geometry":{"type":"Point","coordinates":[5.101495449125285,45.869425405358704]},"properties":{"name":"Bressolles","population":931,"contributions":2,"per_cent":0.215,"insee":"01062"}},{"type":"Feature","geometry":{"type":"Point","coordinates":[2.278893097199575,48.432614042598914]},"properties":{"name":"Bouville","population":647,"contributions":2,"per_cent":0.309,"insee":"91100"}},{"type":"Feature","geometry":{"type":"Point","coordinates":[7.604124912575204,48.60150828217213]},"properties":{"name":"Ittenheim","population":2112,"contributions":2,"per_cent":0.095,"insee":"67226"}},{"type":"Feature","geometry":{"type":"Point","coordinates":[-0.2497884628168002,43.09336192907866]},"properties":{"name":"Asson","population":2018,"contributions":2,"per_cent":0.099,"insee":"64068"}},{"type":"Feature","geometry":{"type":"Point","coordinates":[2.0650011888861024,42.521707401779864]},"properties":{"name":"Bolqu\u00e8re","population":813,"contributions":1,"per_cent":0.123,"insee":"66020"}},{"type":"Feature","geometry":{"type":"Point","coordinates":[3.984114371869091,44.26086716679421]},"properties":{"name":"Sainte-C\u00e9cile-d'Andorge","population":590,"contributions":1,"per_cent":0.169,"insee":"30239"}},{"type":"Feature","geometry":{"type":"Point","coordinates":[3.630372204769544,50.30996100027627]},"properties":{"name":"Jenlain","population":1141,"contributions":2,"per_cent":0.175,"insee":"59323"}},{"type":"Feature","geometry":{"type":"Point","coordinates":[2.357461913303338,49.87239437469993]},"properties":{"name":"Longueau","population":5693,"contributions":18,"per_cent":0.316,"insee":"80489"}},{"type":"Feature","geometry":{"type":"Point","coordinates":[7.512599119864475,48.39902445687787]},"properties":{"name":"Zellwiller","population":810,"contributions":1,"per_cent":0.123,"insee":"67557"}},{"type":"Feature","geometry":{"type":"Point","coordinates":[6.662933127407683,47.969586154657]},"properties":{"name":"Vecoux","population":865,"contributions":1,"per_cent":0.116,"insee":"88498"}},{"type":"Feature","geometry":{"type":"Point","coordinates":[1.6737671110414896,48.98432550896347]},"properties":{"name":"Buchelay","population":3111,"contributions":16,"per_cent":0.514,"insee":"78118"}},{"type":"Feature","geometry":{"type":"Point","coordinates":[4.842081438233565,45.1582729823988]},"properties":{"name":"Ponsas","population":531,"contributions":1,"per_cent":0.188,"insee":"26247"}},{"type":"Feature","geometry":{"type":"Point","coordinates":[4.821446732148774,46.41824255649643]},"properties":{"name":"Cless\u00e9","population":881,"contributions":1,"per_cent":0.114,"insee":"71135"}},{"type":"Feature","geometry":{"type":"Point","coordinates":[-3.4812112681866423,48.13184756976042]},"properties":{"name":"Langonnet","population":1739,"contributions":6,"per_cent":0.345,"insee":"56100"}},{"type":"Feature","geometry":{"type":"Point","coordinates":[-0.5514805815630075,43.22134687491173]},"properties":{"name":"Estialescq","population":264,"contributions":1,"per_cent":0.379,"insee":"64219"}},{"type":"Feature","geometry":{"type":"Point","coordinates":[4.897577809932494,44.720961560823916]},"properties":{"name":"Grane","population":1943,"contributions":20,"per_cent":1.029,"insee":"26144"}},{"type":"Feature","geometry":{"type":"Point","coordinates":[1.968477098866037,49.052440370627345]},"properties":{"name":"Sagy","population":1106,"contributions":2,"per_cent":0.181,"insee":"95535"}},{"type":"Feature","geometry":{"type":"Point","coordinates":[5.687553899357905,46.572003382798236]},"properties":{"name":"Pont-de-Poitte","population":638,"contributions":4,"per_cent":0.627,"insee":"39435"}},{"type":"Feature","geometry":{"type":"Point","coordinates":[5.537547566679185,46.76537177903541]},"properties":{"name":"Arlay","population":1217,"contributions":1,"per_cent":0.082,"insee":"39017"}},{"type":"Feature","geometry":{"type":"Point","coordinates":[5.522281565137806,43.556467416302546]},"properties":{"name":"Saint-Marc-Jaumegarde","population":1243,"contributions":1,"per_cent":0.08,"insee":"13095"}},{"type":"Feature","geometry":{"type":"Point","coordinates":[8.804159375482708,42.478234245536306]},"properties":{"name":"Calenzana","population":2401,"contributions":4,"per_cent":0.167,"insee":"2B049"}},{"type":"Feature","geometry":{"type":"Point","coordinates":[0.8367813104552694,49.10445168349907]},"properties":{"name":"Bray","population":398,"contributions":1,"per_cent":0.251,"insee":"27109"}},{"type":"Feature","geometry":{"type":"Point","coordinates":[-0.5392744345743479,44.42302784472449]},"properties":{"name":"Saint-Symphorien","population":1834,"contributions":2,"per_cent":0.109,"insee":"33484"}},{"type":"Feature","geometry":{"type":"Point","coordinates":[-1.7490223887312093,46.757480898125685]},"properties":{"name":"Apremont","population":1833,"contributions":36,"per_cent":1.964,"insee":"85006"}},{"type":"Feature","geometry":{"type":"Point","coordinates":[2.9345205002039143,45.54871994371453]},"properties":{"name":"Saint-Victor-la-Rivi\u00e8re","population":251,"contributions":1,"per_cent":0.398,"insee":"63401"}},{"type":"Feature","geometry":{"type":"Point","coordinates":[4.5924227951567875,48.727971834301194]},"properties":{"name":"Vitry-le-Fran\u00e7ois","population":11743,"contributions":62,"per_cent":0.528,"insee":"51649"}},{"type":"Feature","geometry":{"type":"Point","coordinates":[2.576314643331066,48.73529455923299]},"properties":{"name":"Santeny","population":4045,"contributions":40,"per_cent":0.989,"insee":"94070"}},{"type":"Feature","geometry":{"type":"Point","coordinates":[3.505057847640185,50.388799035765075]},"properties":{"name":"Beuvrages","population":6821,"contributions":2,"per_cent":0.029,"insee":"59079"}},{"type":"Feature","geometry":{"type":"Point","coordinates":[1.232181258741151,45.136217422859644]},"properties":{"name":"Le Lardin-Saint-Lazare","population":1720,"contributions":1,"per_cent":0.058,"insee":"24229"}},{"type":"Feature","geometry":{"type":"Point","coordinates":[1.13781765566835,49.882469485771075]},"properties":{"name":"Arques-la-Bataille","population":2590,"contributions":32,"per_cent":1.236,"insee":"76026"}},{"type":"Feature","geometry":{"type":"Point","coordinates":[-1.0118950355382226,48.133165514198865]},"properties":{"name":"Launay-Villiers","population":384,"contributions":2,"per_cent":0.521,"insee":"53129"}},{"type":"Feature","geometry":{"type":"Point","coordinates":[5.653936051314299,44.54843312434948]},"properties":{"name":"La Beaume","population":152,"contributions":2,"per_cent":1.316,"insee":"05019"}},{"type":"Feature","geometry":{"type":"Point","coordinates":[2.1943131304678487,48.99370824439627]},"properties":{"name":"Montigny-l\u00e8s-Cormeilles","population":21638,"contributions":51,"per_cent":0.236,"insee":"95424"}},{"type":"Feature","geometry":{"type":"Point","coordinates":[1.5812252095883355,47.83364946550352]},"properties":{"name":"Cravant","population":966,"contributions":1,"per_cent":0.104,"insee":"45116"}},{"type":"Feature","geometry":{"type":"Point","coordinates":[5.966127962761988,43.994664707294774]},"properties":{"name":"Les M\u00e9es","population":3740,"contributions":8,"per_cent":0.214,"insee":"04116"}},{"type":"Feature","geometry":{"type":"Point","coordinates":[7.5056870698855676,48.61906631667674]},"properties":{"name":"Marlenheim","population":4267,"contributions":35,"per_cent":0.82,"insee":"67282"}},{"type":"Feature","geometry":{"type":"Point","coordinates":[-0.7119448548378082,48.125891017697995]},"properties":{"name":"Louvern\u00e9","population":4386,"contributions":32,"per_cent":0.73,"insee":"53140"}},{"type":"Feature","geometry":{"type":"Point","coordinates":[4.090351356188664,46.27531325230686]},"properties":{"name":"Semur-en-Brionnais","population":607,"contributions":1,"per_cent":0.165,"insee":"71510"}},{"type":"Feature","geometry":{"type":"Point","coordinates":[-1.5758728629651189,48.21240640954021]},"properties":{"name":"Saint-Sulpice-la-For\u00eat","population":1378,"contributions":6,"per_cent":0.435,"insee":"35315"}},{"type":"Feature","geometry":{"type":"Point","coordinates":[1.3462205369430007,43.919487925228495]},"properties":{"name":"Labastide-Saint-Pierre","population":3762,"contributions":4,"per_cent":0.106,"insee":"82079"}},{"type":"Feature","geometry":{"type":"Point","coordinates":[2.5039637158869508,49.04220246972892]},"properties":{"name":"Louvres","population":10478,"contributions":61,"per_cent":0.582,"insee":"95351"}},{"type":"Feature","geometry":{"type":"Point","coordinates":[5.34643923777411,45.009924291721575]},"properties":{"name":"Saint-Laurent-en-Royans","population":1432,"contributions":4,"per_cent":0.279,"insee":"26311"}},{"type":"Feature","geometry":{"type":"Point","coordinates":[6.422904818398654,47.09461555120983]},"properties":{"name":"Passonfontaine","population":328,"contributions":1,"per_cent":0.305,"insee":"25447"}},{"type":"Feature","geometry":{"type":"Point","coordinates":[6.765453756597556,43.904708896881466]},"properties":{"name":"Val-de-Chalvagne","population":87,"contributions":1,"per_cent":1.149,"insee":"04043"}},{"type":"Feature","geometry":{"type":"Point","coordinates":[2.4940277559219064,45.90847568088217]},"properties":{"name":"M\u00e9rinchal","population":703,"contributions":1,"per_cent":0.142,"insee":"23131"}},{"type":"Feature","geometry":{"type":"Point","coordinates":[3.0805186415734873,50.57307430827882]},"properties":{"name":"Vendeville","population":1584,"contributions":19,"per_cent":1.199,"insee":"59609"}},{"type":"Feature","geometry":{"type":"Point","coordinates":[1.6832669580027828,49.30444991222476]},"properties":{"name":"B\u00e9zu-Saint-\u00c9loi","population":1527,"contributions":1,"per_cent":0.065,"insee":"27067"}},{"type":"Feature","geometry":{"type":"Point","coordinates":[5.838311046365745,44.08275322151086]},"properties":{"name":"Cruis","population":641,"contributions":1,"per_cent":0.156,"insee":"04065"}},{"type":"Feature","geometry":{"type":"Point","coordinates":[5.997084176122085,49.01621521735312]},"properties":{"name":"Bayonville-sur-Mad","population":311,"contributions":1,"per_cent":0.322,"insee":"54055"}},{"type":"Feature","geometry":{"type":"Point","coordinates":[-1.1398562924871387,47.91332971924901]},"properties":{"name":"Fontaine-Couverte","population":436,"contributions":1,"per_cent":0.229,"insee":"53098"}},{"type":"Feature","geometry":{"type":"Point","coordinates":[-3.3496637660344617,47.70963263626797]},"properties":{"name":"Port-Louis","population":2636,"contributions":47,"per_cent":1.783,"insee":"56181"}},{"type":"Feature","geometry":{"type":"Point","coordinates":[6.186937108770308,48.84889188426277]},"properties":{"name":"Belleau","population":750,"contributions":1,"per_cent":0.133,"insee":"54059"}},{"type":"Feature","geometry":{"type":"Point","coordinates":[2.4298798101903616,49.31361576373018]},"properties":{"name":"Cauffry","population":2581,"contributions":4,"per_cent":0.155,"insee":"60134"}},{"type":"Feature","geometry":{"type":"Point","coordinates":[2.308612101180454,50.629526064273236]},"properties":{"name":"Mametz","population":2002,"contributions":1,"per_cent":0.05,"insee":"62543"}},{"type":"Feature","geometry":{"type":"Point","coordinates":[-1.9592638913150324,48.46600430528192]},"properties":{"name":"Saint-H\u00e9len","population":1497,"contributions":2,"per_cent":0.134,"insee":"22299"}},{"type":"Feature","geometry":{"type":"Point","coordinates":[6.09898818748233,45.44628848065451]},"properties":{"name":"D\u00e9trier","population":429,"contributions":2,"per_cent":0.466,"insee":"73099"}},{"type":"Feature","geometry":{"type":"Point","coordinates":[6.310897714154439,44.305330219962194]},"properties":{"name":"Auzet","population":98,"contributions":1,"per_cent":1.02,"insee":"04017"}},{"type":"Feature","geometry":{"type":"Point","coordinates":[1.6345826471585625,50.41972331047992]},"properties":{"name":"Rang-du-Fliers","population":4224,"contributions":12,"per_cent":0.284,"insee":"62688"}},{"type":"Feature","geometry":{"type":"Point","coordinates":[-0.7414308703986713,49.300099634244404]},"properties":{"name":"Sully","population":147,"contributions":1,"per_cent":0.68,"insee":"14680"}},{"type":"Feature","geometry":{"type":"Point","coordinates":[-0.38641194581513105,47.70906961290007]},"properties":{"name":"Morannes sur Sarthe-Daumeray","population":3677,"contributions":31,"per_cent":0.843,"insee":"49220"}},{"type":"Feature","geometry":{"type":"Point","coordinates":[1.6081022214787402,48.76412618973853]},"properties":{"name":"Dannemarie","population":202,"contributions":1,"per_cent":0.495,"insee":"78194"}},{"type":"Feature","geometry":{"type":"Point","coordinates":[2.173209398186478,42.88478359127819]},"properties":{"name":"Quillan","population":3238,"contributions":34,"per_cent":1.05,"insee":"11304"}},{"type":"Feature","geometry":{"type":"Point","coordinates":[5.675512686635726,45.155136264525126]},"properties":{"name":"Seyssins","population":7783,"contributions":89,"per_cent":1.144,"insee":"38486"}},{"type":"Feature","geometry":{"type":"Point","coordinates":[-0.39933790500931143,49.08233716829569]},"properties":{"name":"Laize-Clinchamps","population":2082,"contributions":1,"per_cent":0.048,"insee":"14349"}},{"type":"Feature","geometry":{"type":"Point","coordinates":[1.9837093243894577,48.818768894275294]},"properties":{"name":"Les Clayes-sous-Bois","population":17560,"contributions":80,"per_cent":0.456,"insee":"78165"}},{"type":"Feature","geometry":{"type":"Point","coordinates":[1.533205149098656,49.082318387321344]},"properties":{"name":"Giverny","population":496,"contributions":2,"per_cent":0.403,"insee":"27285"}},{"type":"Feature","geometry":{"type":"Point","coordinates":[6.211831642188275,44.646795883178434]},"properties":{"name":"Saint-L\u00e9ger-les-M\u00e9l\u00e8zes","population":356,"contributions":1,"per_cent":0.281,"insee":"05149"}},{"type":"Feature","geometry":{"type":"Point","coordinates":[3.0783557680225337,47.54832401195455]},"properties":{"name":"Saint-Amand-en-Puisaye","population":1233,"contributions":1,"per_cent":0.081,"insee":"58227"}},{"type":"Feature","geometry":{"type":"Point","coordinates":[-0.19363162875419654,47.82159917836795]},"properties":{"name":"Parc\u00e9-sur-Sarthe","population":2094,"contributions":2,"per_cent":0.096,"insee":"72228"}},{"type":"Feature","geometry":{"type":"Point","coordinates":[4.672474209486824,45.30157279710593]},"properties":{"name":"Savas","population":899,"contributions":1,"per_cent":0.111,"insee":"07310"}},{"type":"Feature","geometry":{"type":"Point","coordinates":[0.07622851847375088,43.20943363659119]},"properties":{"name":"Laloub\u00e8re","population":1880,"contributions":27,"per_cent":1.436,"insee":"65251"}},{"type":"Feature","geometry":{"type":"Point","coordinates":[7.4137545310072,48.76427121821509]},"properties":{"name":"Steinbourg","population":1965,"contributions":2,"per_cent":0.102,"insee":"67478"}},{"type":"Feature","geometry":{"type":"Point","coordinates":[1.3599850167205163,46.108856992866805]},"properties":{"name":"Bessines-sur-Gartempe","population":2818,"contributions":1,"per_cent":0.035,"insee":"87014"}},{"type":"Feature","geometry":{"type":"Point","coordinates":[0.8215053708115657,49.512152833291395]},"properties":{"name":"Sainte-Marguerite-sur-Duclair","population":2028,"contributions":22,"per_cent":1.085,"insee":"76608"}},{"type":"Feature","geometry":{"type":"Point","coordinates":[0.9941123624460272,49.481999576910866]},"properties":{"name":"La Vaupali\u00e8re","population":1113,"contributions":6,"per_cent":0.539,"insee":"76728"}},{"type":"Feature","geometry":{"type":"Point","coordinates":[4.740918599275608,46.24118076945819]},"properties":{"name":"Saint-Amour-Bellevue","population":567,"contributions":1,"per_cent":0.176,"insee":"71385"}},{"type":"Feature","geometry":{"type":"Point","coordinates":[1.4196046334132117,48.795241140908715]},"properties":{"name":"Abondant","population":2368,"contributions":5,"per_cent":0.211,"insee":"28001"}},{"type":"Feature","geometry":{"type":"Point","coordinates":[6.571657189928722,48.210103114521736]},"properties":{"name":"Aydoilles","population":1012,"contributions":3,"per_cent":0.296,"insee":"88026"}},{"type":"Feature","geometry":{"type":"Point","coordinates":[7.6652717053319614,48.643762873769376]},"properties":{"name":"Pfulgriesheim","population":1310,"contributions":1,"per_cent":0.076,"insee":"67375"}},{"type":"Feature","geometry":{"type":"Point","coordinates":[6.134068998245771,48.63131127747187]},"properties":{"name":"Chavigny","population":1791,"contributions":7,"per_cent":0.391,"insee":"54123"}},{"type":"Feature","geometry":{"type":"Point","coordinates":[0.8086413364645741,44.41826920708062]},"properties":{"name":"Saint-Sylvestre-sur-Lot","population":2310,"contributions":2,"per_cent":0.087,"insee":"47280"}},{"type":"Feature","geometry":{"type":"Point","coordinates":[-3.0063341580506617,48.57715815476378]},"properties":{"name":"Bringolo","population":478,"contributions":1,"per_cent":0.209,"insee":"22019"}},{"type":"Feature","geometry":{"type":"Point","coordinates":[-4.222060031673514,48.397066868317864]},"properties":{"name":"Saint-Urbain","population":1641,"contributions":5,"per_cent":0.305,"insee":"29270"}},{"type":"Feature","geometry":{"type":"Point","coordinates":[5.3828144450390765,49.06511582980869]},"properties":{"name":"Ancemont","population":539,"contributions":2,"per_cent":0.371,"insee":"55009"}},{"type":"Feature","geometry":{"type":"Point","coordinates":[-1.9073998462947854,47.03436789684665]},"properties":{"name":"Villeneuve-en-Retz","population":4911,"contributions":44,"per_cent":0.896,"insee":"44021"}},{"type":"Feature","geometry":{"type":"Point","coordinates":[2.6579223086485277,48.544316061001695]},"properties":{"name":"Melun","population":39947,"contributions":179,"per_cent":0.448,"insee":"77288"}},{"type":"Feature","geometry":{"type":"Point","coordinates":[4.003942165127805,45.131190522492396]},"properties":{"name":"Rosi\u00e8res","population":1524,"contributions":2,"per_cent":0.131,"insee":"43165"}},{"type":"Feature","geometry":{"type":"Point","coordinates":[-0.5182200570812597,48.15630903984663]},"properties":{"name":"Br\u00e9e","population":545,"contributions":6,"per_cent":1.101,"insee":"53043"}},{"type":"Feature","geometry":{"type":"Point","coordinates":[3.5922219908011006,43.68337576303866]},"properties":{"name":"Aniane","population":2915,"contributions":46,"per_cent":1.578,"insee":"34010"}},{"type":"Feature","geometry":{"type":"Point","coordinates":[4.65377343529569,45.91708871644179]},"properties":{"name":"Alix","population":768,"contributions":1,"per_cent":0.13,"insee":"69004"}},{"type":"Feature","geometry":{"type":"Point","coordinates":[6.638342921864722,49.225264114225816]},"properties":{"name":"Falck","population":2495,"contributions":5,"per_cent":0.2,"insee":"57205"}},{"type":"Feature","geometry":{"type":"Point","coordinates":[-0.41784480084945075,48.947228893927836]},"properties":{"name":"Donnay","population":289,"contributions":2,"per_cent":0.692,"insee":"14226"}},{"type":"Feature","geometry":{"type":"Point","coordinates":[3.541483287751128,45.75842039468188]},"properties":{"name":"Courpi\u00e8re","population":4034,"contributions":1,"per_cent":0.025,"insee":"63125"}},{"type":"Feature","geometry":{"type":"Point","coordinates":[-0.8242000522744383,45.576399477603644]},"properties":{"name":"Cozes","population":2147,"contributions":7,"per_cent":0.326,"insee":"17131"}},{"type":"Feature","geometry":{"type":"Point","coordinates":[2.8535467736509266,49.46669815408497]},"properties":{"name":"Longueil-Annel","population":2624,"contributions":1,"per_cent":0.038,"insee":"60368"}},{"type":"Feature","geometry":{"type":"Point","coordinates":[4.651715420545537,46.00477416113889]},"properties":{"name":"Denic\u00e9","population":1531,"contributions":1,"per_cent":0.065,"insee":"69074"}},{"type":"Feature","geometry":{"type":"Point","coordinates":[3.0331273862736947,50.45721881535529]},"properties":{"name":"Ostricourt","population":5367,"contributions":38,"per_cent":0.708,"insee":"59452"}},{"type":"Feature","geometry":{"type":"Point","coordinates":[-2.2356205945646788,48.551527127480924]},"properties":{"name":"Saint-Lormel","population":867,"contributions":1,"per_cent":0.115,"insee":"22311"}},{"type":"Feature","geometry":{"type":"Point","coordinates":[7.613427444229426,48.433671254792834]},"properties":{"name":"Schaeffersheim","population":824,"contributions":1,"per_cent":0.121,"insee":"67438"}},{"type":"Feature","geometry":{"type":"Point","coordinates":[0.1623552808185138,48.24085691671833]},"properties":{"name":"Vivoin","population":949,"contributions":1,"per_cent":0.105,"insee":"72380"}},{"type":"Feature","geometry":{"type":"Point","coordinates":[-0.8192479717436237,44.79355557940542]},"properties":{"name":"Saint-Jean-d'Illac","population":8678,"contributions":52,"per_cent":0.599,"insee":"33422"}},{"type":"Feature","geometry":{"type":"Point","coordinates":[6.616924733770536,48.70213734338473]},"properties":{"name":"Coincourt","population":122,"contributions":1,"per_cent":0.82,"insee":"54133"}},{"type":"Feature","geometry":{"type":"Point","coordinates":[2.712567355297558,50.421097641794276]},"properties":{"name":"Aix-Noulette","population":3915,"contributions":6,"per_cent":0.153,"insee":"62019"}},{"type":"Feature","geometry":{"type":"Point","coordinates":[-0.9403857391412468,43.798215546553536]},"properties":{"name":"Pontonx-sur-l'Adour","population":2839,"contributions":2,"per_cent":0.07,"insee":"40230"}},{"type":"Feature","geometry":{"type":"Point","coordinates":[1.3740983193779117,43.66707811293277]},"properties":{"name":"Beauzelle","population":6676,"contributions":24,"per_cent":0.359,"insee":"31056"}},{"type":"Feature","geometry":{"type":"Point","coordinates":[2.642663398935422,50.44529011356336]},"properties":{"name":"Hersin-Coupigny","population":6263,"contributions":1,"per_cent":0.016,"insee":"62443"}},{"type":"Feature","geometry":{"type":"Point","coordinates":[1.3567934985196357,43.73917693509877]},"properties":{"name":"Saint-Jory","population":5902,"contributions":22,"per_cent":0.373,"insee":"31490"}},{"type":"Feature","geometry":{"type":"Point","coordinates":[-0.4938594213655614,48.90309522100439]},"properties":{"name":"Cl\u00e9cy","population":1292,"contributions":3,"per_cent":0.232,"insee":"14162"}},{"type":"Feature","geometry":{"type":"Point","coordinates":[6.03768955073165,45.35964140514477]},"properties":{"name":"Cr\u00eats en Belledonne","population":3299,"contributions":4,"per_cent":0.121,"insee":"38439"}},{"type":"Feature","geometry":{"type":"Point","coordinates":[5.799139542590689,45.24328126393679]},"properties":{"name":"Biviers","population":2359,"contributions":4,"per_cent":0.17,"insee":"38045"}},{"type":"Feature","geometry":{"type":"Point","coordinates":[-1.2231835043261994,43.46802190785691]},"properties":{"name":"Bardos","population":1828,"contributions":1,"per_cent":0.055,"insee":"64094"}},{"type":"Feature","geometry":{"type":"Point","coordinates":[1.9793914413629916,49.74787500510827]},"properties":{"name":"Poix-de-Picardie","population":2385,"contributions":2,"per_cent":0.084,"insee":"80630"}},{"type":"Feature","geometry":{"type":"Point","coordinates":[-1.0779048596922964,43.67335757814136]},"properties":{"name":"Oeyreluy","population":1507,"contributions":2,"per_cent":0.133,"insee":"40207"}},{"type":"Feature","geometry":{"type":"Point","coordinates":[2.810031117004887,45.57568591843109]},"properties":{"name":"Mont-Dore","population":1280,"contributions":2,"per_cent":0.156,"insee":"63236"}},{"type":"Feature","geometry":{"type":"Point","coordinates":[0.35316444386955337,42.872862692679355]},"properties":{"name":"Gr\u00e9zian","population":77,"contributions":1,"per_cent":1.299,"insee":"65209"}},{"type":"Feature","geometry":{"type":"Point","coordinates":[3.5939026212991623,47.90183012015917]},"properties":{"name":"Seignelay","population":1485,"contributions":3,"per_cent":0.202,"insee":"89382"}},{"type":"Feature","geometry":{"type":"Point","coordinates":[5.088507280115521,45.310417935197805]},"properties":{"name":"Marcollin","population":658,"contributions":1,"per_cent":0.152,"insee":"38219"}},{"type":"Feature","geometry":{"type":"Point","coordinates":[3.103845093497004,50.41504573154534]},"properties":{"name":"Roost-Warendin","population":6089,"contributions":56,"per_cent":0.92,"insee":"59509"}},{"type":"Feature","geometry":{"type":"Point","coordinates":[-0.5064266563808856,43.32466751338616]},"properties":{"name":"Arbus","population":1213,"contributions":16,"per_cent":1.319,"insee":"64037"}},{"type":"Feature","geometry":{"type":"Point","coordinates":[4.74728612015381,47.232529002382]},"properties":{"name":"Saint-Victor-sur-Ouche","population":313,"contributions":1,"per_cent":0.319,"insee":"21578"}},{"type":"Feature","geometry":{"type":"Point","coordinates":[1.5517047872965064,48.58905027003629]},"properties":{"name":"Pierres","population":2769,"contributions":16,"per_cent":0.578,"insee":"28298"}},{"type":"Feature","geometry":{"type":"Point","coordinates":[1.4902347390779822,43.47145044696501]},"properties":{"name":"Corronsac","population":839,"contributions":2,"per_cent":0.238,"insee":"31151"}},{"type":"Feature","geometry":{"type":"Point","coordinates":[-1.4626825378414101,48.44007996396879]},"properties":{"name":"Val-Couesnon","population":4158,"contributions":3,"per_cent":0.072,"insee":"35004"}},{"type":"Feature","geometry":{"type":"Point","coordinates":[5.565280103465419,49.09023223710634]},"properties":{"name":"Bonz\u00e9e","population":349,"contributions":1,"per_cent":0.287,"insee":"55060"}},{"type":"Feature","geometry":{"type":"Point","coordinates":[5.727257710883952,45.06897475434621]},"properties":{"name":"Champ-sur-Drac","population":3090,"contributions":3,"per_cent":0.097,"insee":"38071"}},{"type":"Feature","geometry":{"type":"Point","coordinates":[-3.1808589207836055,48.71683177824035]},"properties":{"name":"Plo\u00ebzal","population":1240,"contributions":1,"per_cent":0.081,"insee":"22204"}},{"type":"Feature","geometry":{"type":"Point","coordinates":[6.136541231574894,46.000428081804465]},"properties":{"name":"Villy-le-Pelloux","population":963,"contributions":1,"per_cent":0.104,"insee":"74307"}},{"type":"Feature","geometry":{"type":"Point","coordinates":[4.233353743883787,43.737033188341044]},"properties":{"name":"Verg\u00e8ze","population":5243,"contributions":30,"per_cent":0.572,"insee":"30344"}},{"type":"Feature","geometry":{"type":"Point","coordinates":[0.23964661525657244,49.66016384397773]},"properties":{"name":"Villainville","population":289,"contributions":3,"per_cent":1.038,"insee":"76741"}},{"type":"Feature","geometry":{"type":"Point","coordinates":[2.968731198276964,50.67008789545686]},"properties":{"name":"P\u00e9renchies","population":8413,"contributions":125,"per_cent":1.486,"insee":"59457"}},{"type":"Feature","geometry":{"type":"Point","coordinates":[7.1511801322168855,47.766592327735445]},"properties":{"name":"Aspach-le-Bas","population":1319,"contributions":1,"per_cent":0.076,"insee":"68011"}},{"type":"Feature","geometry":{"type":"Point","coordinates":[1.0351059202485244,48.44961591683038]},"properties":{"name":"Saint-\u00c9liph","population":866,"contributions":1,"per_cent":0.115,"insee":"28335"}},{"type":"Feature","geometry":{"type":"Point","coordinates":[2.0523050608940734,47.1792815563966]},"properties":{"name":"M\u00e9reau","population":2608,"contributions":3,"per_cent":0.115,"insee":"18148"}},{"type":"Feature","geometry":{"type":"Point","coordinates":[1.0993226921793824,49.73478308735059]},"properties":{"name":"Heugleville-sur-Scie","population":636,"contributions":2,"per_cent":0.314,"insee":"76360"}},{"type":"Feature","geometry":{"type":"Point","coordinates":[0.5139578643517422,48.11972911054512]},"properties":{"name":"Tuff\u00e9 Val de la Ch\u00e9ronne","population":1657,"contributions":41,"per_cent":2.474,"insee":"72363"}},{"type":"Feature","geometry":{"type":"Point","coordinates":[2.43779472871607,49.09474476013865]},"properties":{"name":"Lassy","population":183,"contributions":1,"per_cent":0.546,"insee":"95331"}},{"type":"Feature","geometry":{"type":"Point","coordinates":[5.711259360676156,47.15928825084908]},"properties":{"name":"Monteplain","population":131,"contributions":1,"per_cent":0.763,"insee":"39352"}},{"type":"Feature","geometry":{"type":"Point","coordinates":[-0.6003522367792797,47.31841102835055]},"properties":{"name":"Beaulieu-sur-Layon","population":1370,"contributions":16,"per_cent":1.168,"insee":"49022"}},{"type":"Feature","geometry":{"type":"Point","coordinates":[2.5217147894755185,48.34714156890011]},"properties":{"name":"Le Vaudou\u00e9","population":729,"contributions":2,"per_cent":0.274,"insee":"77485"}},{"type":"Feature","geometry":{"type":"Point","coordinates":[6.427787352498697,47.28347032703815]},"properties":{"name":"Vaudrivillers","population":87,"contributions":1,"per_cent":1.149,"insee":"25590"}},{"type":"Feature","geometry":{"type":"Point","coordinates":[6.1105983971757105,48.772975236168584]},"properties":{"name":"Pompey","population":4871,"contributions":2,"per_cent":0.041,"insee":"54430"}},{"type":"Feature","geometry":{"type":"Point","coordinates":[2.8236505348312235,48.8861839499186]},"properties":{"name":"Montry","population":3688,"contributions":36,"per_cent":0.976,"insee":"77315"}},{"type":"Feature","geometry":{"type":"Point","coordinates":[7.734276059339386,48.910016838619036]},"properties":{"name":"Morsbronn-les-Bains","population":689,"contributions":1,"per_cent":0.145,"insee":"67303"}},{"type":"Feature","geometry":{"type":"Point","coordinates":[-1.3772397348029108,46.182900754681626]},"properties":{"name":"Le Bois-Plage-en-R\u00e9","population":2246,"contributions":16,"per_cent":0.712,"insee":"17051"}},{"type":"Feature","geometry":{"type":"Point","coordinates":[3.008453144895574,42.753861460036724]},"properties":{"name":"Torreilles","population":3825,"contributions":39,"per_cent":1.02,"insee":"66212"}},{"type":"Feature","geometry":{"type":"Point","coordinates":[0.48102035839193186,44.407820199056076]},"properties":{"name":"Castelmoron-sur-Lot","population":1756,"contributions":32,"per_cent":1.822,"insee":"47054"}},{"type":"Feature","geometry":{"type":"Point","coordinates":[2.293036130759852,50.2701796337153]},"properties":{"name":"Fr\u00e9vent","population":3498,"contributions":2,"per_cent":0.057,"insee":"62361"}},{"type":"Feature","geometry":{"type":"Point","coordinates":[2.869837915479354,43.14838212781301]},"properties":{"name":"Bizanet","population":1731,"contributions":37,"per_cent":2.137,"insee":"11040"}},{"type":"Feature","geometry":{"type":"Point","coordinates":[6.094461566711079,45.50743384126206]},"properties":{"name":"Planaise","population":552,"contributions":2,"per_cent":0.362,"insee":"73200"}},{"type":"Feature","geometry":{"type":"Point","coordinates":[2.769680050471887,48.43162217995636]},"properties":{"name":"Vulaines-sur-Seine","population":2732,"contributions":4,"per_cent":0.146,"insee":"77533"}},{"type":"Feature","geometry":{"type":"Point","coordinates":[4.7212635618141645,46.058181378498126]},"properties":{"name":"Saint-Georges-de-Reneins","population":4394,"contributions":6,"per_cent":0.137,"insee":"69206"}},{"type":"Feature","geometry":{"type":"Point","coordinates":[2.4335400132111276,50.96910496082392]},"properties":{"name":"Bergues","population":3637,"contributions":31,"per_cent":0.852,"insee":"59067"}},{"type":"Feature","geometry":{"type":"Point","coordinates":[-61.06893303872063,14.640520595495868]},"properties":{"name":"Fort-de-France","population":78126,"contributions":27,"per_cent":0.035,"insee":"97209"}},{"type":"Feature","geometry":{"type":"Point","coordinates":[4.494153066539454,45.89247520824711]},"properties":{"name":"Vindry-sur-Turdine","population":5234,"contributions":4,"per_cent":0.076,"insee":"69157"}},{"type":"Feature","geometry":{"type":"Point","coordinates":[-3.147861392142627,47.836985082808795]},"properties":{"name":"Languidic","population":8010,"contributions":67,"per_cent":0.836,"insee":"56101"}},{"type":"Feature","geometry":{"type":"Point","coordinates":[7.312912707984719,43.77071939480445]},"properties":{"name":"Cantaron","population":1306,"contributions":2,"per_cent":0.153,"insee":"06031"}},{"type":"Feature","geometry":{"type":"Point","coordinates":[1.4509821945640329,43.9209228265726]},"properties":{"name":"Villebrumier","population":1378,"contributions":2,"per_cent":0.145,"insee":"82194"}},{"type":"Feature","geometry":{"type":"Point","coordinates":[-1.0803973915847573,46.29335114789967]},"properties":{"name":"Charron","population":1995,"contributions":3,"per_cent":0.15,"insee":"17091"}},{"type":"Feature","geometry":{"type":"Point","coordinates":[-1.2496446958280638,49.06606491316698]},"properties":{"name":"Carantilly","population":632,"contributions":1,"per_cent":0.158,"insee":"50098"}},{"type":"Feature","geometry":{"type":"Point","coordinates":[4.773649227299005,45.914084769411865]},"properties":{"name":"Quincieux","population":3480,"contributions":18,"per_cent":0.517,"insee":"69163"}},{"type":"Feature","geometry":{"type":"Point","coordinates":[1.3037158498127428,49.79741633482553]},"properties":{"name":"Osmoy-Saint-Valery","population":320,"contributions":1,"per_cent":0.313,"insee":"76487"}},{"type":"Feature","geometry":{"type":"Point","coordinates":[5.7752278369853185,44.32030190861083]},"properties":{"name":"Sal\u00e9on","population":89,"contributions":1,"per_cent":1.124,"insee":"05159"}},{"type":"Feature","geometry":{"type":"Point","coordinates":[1.1071540476062807,48.96749289417927]},"properties":{"name":"Les Baux-Sainte-Croix","population":829,"contributions":5,"per_cent":0.603,"insee":"27044"}},{"type":"Feature","geometry":{"type":"Point","coordinates":[2.420537789358023,49.18936157915887]},"properties":{"name":"Gouvieux","population":9023,"contributions":57,"per_cent":0.632,"insee":"60282"}},{"type":"Feature","geometry":{"type":"Point","coordinates":[0.21781155454490403,47.31536729973276]},"properties":{"name":"Benais","population":911,"contributions":3,"per_cent":0.329,"insee":"37024"}},{"type":"Feature","geometry":{"type":"Point","coordinates":[-4.142596564319735,48.305559227171706]},"properties":{"name":"Le Faou","population":1735,"contributions":7,"per_cent":0.403,"insee":"29053"}},{"type":"Feature","geometry":{"type":"Point","coordinates":[1.5651481600173822,44.33329993615719]},"properties":{"name":"Lalbenque","population":1735,"contributions":3,"per_cent":0.173,"insee":"46148"}},{"type":"Feature","geometry":{"type":"Point","coordinates":[0.7251601117567432,46.813108809818445]},"properties":{"name":"Coussay-les-Bois","population":978,"contributions":2,"per_cent":0.204,"insee":"86086"}},{"type":"Feature","geometry":{"type":"Point","coordinates":[-1.816343492594703,48.12210406716139]},"properties":{"name":"L'Hermitage","population":4533,"contributions":59,"per_cent":1.302,"insee":"35131"}},{"type":"Feature","geometry":{"type":"Point","coordinates":[5.802899003141134,45.58579010450147]},"properties":{"name":"Nances","population":502,"contributions":1,"per_cent":0.199,"insee":"73184"}},{"type":"Feature","geometry":{"type":"Point","coordinates":[4.798790581008984,43.90018740539852]},"properties":{"name":"Rognonas","population":4062,"contributions":95,"per_cent":2.339,"insee":"13083"}},{"type":"Feature","geometry":{"type":"Point","coordinates":[2.8785369662817075,48.5574405637398]},"properties":{"name":"Br\u00e9au","population":336,"contributions":1,"per_cent":0.298,"insee":"77052"}},{"type":"Feature","geometry":{"type":"Point","coordinates":[2.827110580282602,50.40402657961555]},"properties":{"name":"Avion","population":17583,"contributions":10,"per_cent":0.057,"insee":"62065"}},{"type":"Feature","geometry":{"type":"Point","coordinates":[1.6243717754570313,43.08677782477058]},"properties":{"name":"Saint-Jean-du-Falga","population":2863,"contributions":4,"per_cent":0.14,"insee":"09265"}},{"type":"Feature","geometry":{"type":"Point","coordinates":[6.83097502439016,47.620052846814]},"properties":{"name":"Bavilliers","population":4680,"contributions":44,"per_cent":0.94,"insee":"90008"}},{"type":"Feature","geometry":{"type":"Point","coordinates":[6.114756098320047,49.434791972836585]},"properties":{"name":"Kanfen","population":1207,"contributions":2,"per_cent":0.166,"insee":"57356"}},{"type":"Feature","geometry":{"type":"Point","coordinates":[-1.4961212843766156,47.99980525712724]},"properties":{"name":"Amanlis","population":1733,"contributions":3,"per_cent":0.173,"insee":"35002"}},{"type":"Feature","geometry":{"type":"Point","coordinates":[-1.416270149833475,47.87221088062034]},"properties":{"name":"Co\u00ebsmes","population":1466,"contributions":1,"per_cent":0.068,"insee":"35082"}},{"type":"Feature","geometry":{"type":"Point","coordinates":[5.53199873075311,45.47175363168371]},"properties":{"name":"Villages du Lac de Paladru","population":2507,"contributions":3,"per_cent":0.12,"insee":"38292"}},{"type":"Feature","geometry":{"type":"Point","coordinates":[-4.328045263751018,47.99526921387853]},"properties":{"name":"Landudec","population":1454,"contributions":13,"per_cent":0.894,"insee":"29108"}},{"type":"Feature","geometry":{"type":"Point","coordinates":[-0.33678817008407613,44.99392162237073]},"properties":{"name":"V\u00e9rac","population":931,"contributions":2,"per_cent":0.215,"insee":"33542"}},{"type":"Feature","geometry":{"type":"Point","coordinates":[-1.1338466877160973,46.22816355362192]},"properties":{"name":"Marsilly","population":3087,"contributions":14,"per_cent":0.454,"insee":"17222"}},{"type":"Feature","geometry":{"type":"Point","coordinates":[4.314631226800739,44.65227532543141]},"properties":{"name":"Lalevade-d'Ard\u00e8che","population":1112,"contributions":3,"per_cent":0.27,"insee":"07127"}},{"type":"Feature","geometry":{"type":"Point","coordinates":[-4.139715476470275,48.329907605582925]},"properties":{"name":"Hanvec","population":2029,"contributions":7,"per_cent":0.345,"insee":"29078"}},{"type":"Feature","geometry":{"type":"Point","coordinates":[2.7061133756698106,48.553787900924426]},"properties":{"name":"Maincy","population":1798,"contributions":1,"per_cent":0.056,"insee":"77269"}},{"type":"Feature","geometry":{"type":"Point","coordinates":[-0.750442775783813,49.239303858126256]},"properties":{"name":"Subles","population":669,"contributions":2,"per_cent":0.299,"insee":"14679"}},{"type":"Feature","geometry":{"type":"Point","coordinates":[3.0199069926765203,50.338089904429246]},"properties":{"name":"Brebi\u00e8res","population":5083,"contributions":2,"per_cent":0.039,"insee":"62173"}},{"type":"Feature","geometry":{"type":"Point","coordinates":[6.490134545437111,43.84487641322661]},"properties":{"name":"Castellane","population":1497,"contributions":30,"per_cent":2.004,"insee":"04039"}},{"type":"Feature","geometry":{"type":"Point","coordinates":[5.635913104333272,46.23815020819691]},"properties":{"name":"Bellignat","population":3632,"contributions":32,"per_cent":0.881,"insee":"01031"}},{"type":"Feature","geometry":{"type":"Point","coordinates":[4.782510005366038,46.10668331335617]},"properties":{"name":"Gu\u00e9reins","population":1448,"contributions":1,"per_cent":0.069,"insee":"01183"}},{"type":"Feature","geometry":{"type":"Point","coordinates":[7.436504527332616,48.06520148795124]},"properties":{"name":"Andolsheim","population":2172,"contributions":3,"per_cent":0.138,"insee":"68007"}},{"type":"Feature","geometry":{"type":"Point","coordinates":[-3.1374360172938354,48.66983686509369]},"properties":{"name":"Saint-Clet","population":876,"contributions":3,"per_cent":0.342,"insee":"22283"}},{"type":"Feature","geometry":{"type":"Point","coordinates":[1.1776434326699043,49.520672467030984]},"properties":{"name":"Quincampoix","population":3007,"contributions":7,"per_cent":0.233,"insee":"76517"}},{"type":"Feature","geometry":{"type":"Point","coordinates":[4.226299272172564,46.62204510855069]},"properties":{"name":"Perrecy-les-Forges","population":1597,"contributions":1,"per_cent":0.063,"insee":"71346"}},{"type":"Feature","geometry":{"type":"Point","coordinates":[4.915090382350723,44.76659068321684]},"properties":{"name":"Allex","population":2508,"contributions":14,"per_cent":0.558,"insee":"26006"}},{"type":"Feature","geometry":{"type":"Point","coordinates":[-2.0248292080684895,47.580426889222515]},"properties":{"name":"F\u00e9gr\u00e9ac","population":2395,"contributions":3,"per_cent":0.125,"insee":"44057"}},{"type":"Feature","geometry":{"type":"Point","coordinates":[-0.16073948760320428,45.81247089904214]},"properties":{"name":"Neuvicq-le-Ch\u00e2teau","population":317,"contributions":3,"per_cent":0.946,"insee":"17261"}},{"type":"Feature","geometry":{"type":"Point","coordinates":[4.804866086543642,44.601034134734434]},"properties":{"name":"Saint-Marcel-l\u00e8s-Sauzet","population":1290,"contributions":4,"per_cent":0.31,"insee":"26312"}},{"type":"Feature","geometry":{"type":"Point","coordinates":[-2.8311407548243483,47.69760462200203]},"properties":{"name":"Plescop","population":5999,"contributions":77,"per_cent":1.284,"insee":"56158"}},{"type":"Feature","geometry":{"type":"Point","coordinates":[2.928447532782619,48.675543233051194]},"properties":{"name":"Bernay-Vilbert","population":864,"contributions":1,"per_cent":0.116,"insee":"77031"}},{"type":"Feature","geometry":{"type":"Point","coordinates":[-3.525013715222406,47.902151560062684]},"properties":{"name":"Tr\u00e9m\u00e9ven","population":2315,"contributions":4,"per_cent":0.173,"insee":"29297"}},{"type":"Feature","geometry":{"type":"Point","coordinates":[2.0481905394946898,49.13308317203115]},"properties":{"name":"Grisy-les-Pl\u00e2tres","population":696,"contributions":1,"per_cent":0.144,"insee":"95287"}},{"type":"Feature","geometry":{"type":"Point","coordinates":[5.390440376015334,48.6784969117201]},"properties":{"name":"Chanteraine","population":187,"contributions":1,"per_cent":0.535,"insee":"55358"}},{"type":"Feature","geometry":{"type":"Point","coordinates":[3.6605881268314433,43.49412521428941]},"properties":{"name":"Poussan","population":5983,"contributions":54,"per_cent":0.903,"insee":"34213"}},{"type":"Feature","geometry":{"type":"Point","coordinates":[7.013764086863693,48.87177191205214]},"properties":{"name":"Niederstinzel","population":253,"contributions":1,"per_cent":0.395,"insee":"57506"}},{"type":"Feature","geometry":{"type":"Point","coordinates":[1.1980468563884021,44.62069130324467]},"properties":{"name":"Montcl\u00e9ra","population":267,"contributions":1,"per_cent":0.375,"insee":"46200"}},{"type":"Feature","geometry":{"type":"Point","coordinates":[5.503659554168652,44.031284794112196]},"properties":{"name":"Saint-Christol","population":1373,"contributions":1,"per_cent":0.073,"insee":"84107"}},{"type":"Feature","geometry":{"type":"Point","coordinates":[-4.381947749530848,48.533046445871356]},"properties":{"name":"Le Drennec","population":1855,"contributions":7,"per_cent":0.377,"insee":"29047"}},{"type":"Feature","geometry":{"type":"Point","coordinates":[-4.221167925857598,48.44370716796157]},"properties":{"name":"Pencran","population":2010,"contributions":2,"per_cent":0.1,"insee":"29156"}},{"type":"Feature","geometry":{"type":"Point","coordinates":[5.061968858179585,44.171485130923706]},"properties":{"name":"Suzette","population":115,"contributions":1,"per_cent":0.87,"insee":"84130"}},{"type":"Feature","geometry":{"type":"Point","coordinates":[3.8517115562936333,44.04327251683241]},"properties":{"name":"Lasalle","population":1122,"contributions":5,"per_cent":0.446,"insee":"30140"}},{"type":"Feature","geometry":{"type":"Point","coordinates":[6.061969199610568,47.734910009683524]},"properties":{"name":"Amoncourt","population":279,"contributions":4,"per_cent":1.434,"insee":"70015"}},{"type":"Feature","geometry":{"type":"Point","coordinates":[6.1935288712906,43.943132577382336]},"properties":{"name":"Estoublon","population":490,"contributions":1,"per_cent":0.204,"insee":"04084"}},{"type":"Feature","geometry":{"type":"Point","coordinates":[0.144097533152652,48.102577631831075]},"properties":{"name":"La Bazoge","population":3640,"contributions":6,"per_cent":0.165,"insee":"72024"}},{"type":"Feature","geometry":{"type":"Point","coordinates":[0.05539475449611581,43.195057781996404]},"properties":{"name":"Odos","population":3253,"contributions":57,"per_cent":1.752,"insee":"65331"}},{"type":"Feature","geometry":{"type":"Point","coordinates":[2.3170683328528687,47.80887112801466]},"properties":{"name":"Saint-Beno\u00eet-sur-Loire","population":2017,"contributions":1,"per_cent":0.05,"insee":"45270"}},{"type":"Feature","geometry":{"type":"Point","coordinates":[0.3914920566997535,49.41740313823382]},"properties":{"name":"Conteville","population":1004,"contributions":1,"per_cent":0.1,"insee":"27169"}},{"type":"Feature","geometry":{"type":"Point","coordinates":[2.663238047416666,48.57013184656527]},"properties":{"name":"Voisenon","population":1140,"contributions":2,"per_cent":0.175,"insee":"77528"}},{"type":"Feature","geometry":{"type":"Point","coordinates":[6.745088413341249,43.865150300673285]},"properties":{"name":"Brian\u00e7onnet","population":219,"contributions":1,"per_cent":0.457,"insee":"06024"}},{"type":"Feature","geometry":{"type":"Point","coordinates":[0.06573991242108264,43.315699614596326]},"properties":{"name":"Andrest","population":1388,"contributions":5,"per_cent":0.36,"insee":"65007"}},{"type":"Feature","geometry":{"type":"Point","coordinates":[6.293929188380548,45.421680770955106]},"properties":{"name":"La Chapelle","population":331,"contributions":1,"per_cent":0.302,"insee":"73074"}},{"type":"Feature","geometry":{"type":"Point","coordinates":[6.232884401492065,48.942979541071324]},"properties":{"name":"Saint-Jure","population":287,"contributions":1,"per_cent":0.348,"insee":"57617"}},{"type":"Feature","geometry":{"type":"Point","coordinates":[3.498832918214961,45.271091413427214]},"properties":{"name":"Frugi\u00e8res-le-Pin","population":166,"contributions":2,"per_cent":1.205,"insee":"43100"}},{"type":"Feature","geometry":{"type":"Point","coordinates":[7.349313955180164,48.325831579412295]},"properties":{"name":"Thanvill\u00e9","population":589,"contributions":1,"per_cent":0.17,"insee":"67490"}},{"type":"Feature","geometry":{"type":"Point","coordinates":[6.152976145891727,47.276475304763544]},"properties":{"name":"Vaire","population":813,"contributions":2,"per_cent":0.246,"insee":"25575"}},{"type":"Feature","geometry":{"type":"Point","coordinates":[-0.9801476035249534,45.70203625782656]},"properties":{"name":"L'\u00c9guille","population":878,"contributions":7,"per_cent":0.797,"insee":"17151"}},{"type":"Feature","geometry":{"type":"Point","coordinates":[0.0019866307555942066,43.162574939785195]},"properties":{"name":"Lanne","population":595,"contributions":1,"per_cent":0.168,"insee":"65257"}},{"type":"Feature","geometry":{"type":"Point","coordinates":[6.410721382402165,47.4762533234684]},"properties":{"name":"Nans","population":97,"contributions":1,"per_cent":1.031,"insee":"25419"}},{"type":"Feature","geometry":{"type":"Point","coordinates":[0.34740033059605663,42.84676337133226]},"properties":{"name":"Guchan","population":144,"contributions":2,"per_cent":1.389,"insee":"65211"}},{"type":"Feature","geometry":{"type":"Point","coordinates":[6.071633255516301,43.09688915044061]},"properties":{"name":"Carqueiranne","population":9555,"contributions":54,"per_cent":0.565,"insee":"83034"}},{"type":"Feature","geometry":{"type":"Point","coordinates":[4.823454258977673,49.73193023021628]},"properties":{"name":"Vivier-au-Court","population":2930,"contributions":2,"per_cent":0.068,"insee":"08488"}},{"type":"Feature","geometry":{"type":"Point","coordinates":[3.6907006938585654,43.446941033783766]},"properties":{"name":"Balaruc-les-Bains","population":6867,"contributions":17,"per_cent":0.248,"insee":"34023"}},{"type":"Feature","geometry":{"type":"Point","coordinates":[-2.1273442695887215,47.17523832486206]},"properties":{"name":"Saint-Michel-Chef-Chef","population":5173,"contributions":86,"per_cent":1.662,"insee":"44182"}},{"type":"Feature","geometry":{"type":"Point","coordinates":[-0.37794129801352677,48.71132658012491]},"properties":{"name":"Briouze","population":1526,"contributions":1,"per_cent":0.066,"insee":"61063"}},{"type":"Feature","geometry":{"type":"Point","coordinates":[-0.2123997919051785,44.50002685119182]},"properties":{"name":"Coim\u00e8res","population":1034,"contributions":1,"per_cent":0.097,"insee":"33130"}},{"type":"Feature","geometry":{"type":"Point","coordinates":[7.322060273097688,47.789304416435876]},"properties":{"name":"Kingersheim","population":13267,"contributions":51,"per_cent":0.384,"insee":"68166"}},{"type":"Feature","geometry":{"type":"Point","coordinates":[4.464493411923903,43.504297200580005]},"properties":{"name":"Saintes-Maries-de-la-Mer","population":2157,"contributions":53,"per_cent":2.457,"insee":"13096"}},{"type":"Feature","geometry":{"type":"Point","coordinates":[1.9970731261300916,42.3951935485522]},"properties":{"name":"Oss\u00e9ja","population":1336,"contributions":13,"per_cent":0.973,"insee":"66130"}},{"type":"Feature","geometry":{"type":"Point","coordinates":[4.592437019265038,49.24315148965435]},"properties":{"name":"Sommepy-Tahure","population":632,"contributions":1,"per_cent":0.158,"insee":"51544"}},{"type":"Feature","geometry":{"type":"Point","coordinates":[3.226500085346736,45.83826950303335]},"properties":{"name":"Lussat","population":916,"contributions":2,"per_cent":0.218,"insee":"63200"}},{"type":"Feature","geometry":{"type":"Point","coordinates":[5.743830716392641,46.93351986245955]},"properties":{"name":"Villette-l\u00e8s-Arbois","population":390,"contributions":2,"per_cent":0.513,"insee":"39572"}},{"type":"Feature","geometry":{"type":"Point","coordinates":[5.004648510064402,44.59373401816818]},"properties":{"name":"Pont-de-Barret","population":670,"contributions":1,"per_cent":0.149,"insee":"26249"}},{"type":"Feature","geometry":{"type":"Point","coordinates":[-1.0911482814496607,46.21270333439875]},"properties":{"name":"Saint-Xandre","population":4905,"contributions":67,"per_cent":1.366,"insee":"17414"}},{"type":"Feature","geometry":{"type":"Point","coordinates":[3.2258607869485902,48.67646903578364]},"properties":{"name":"Boisdon","population":136,"contributions":1,"per_cent":0.735,"insee":"77036"}},{"type":"Feature","geometry":{"type":"Point","coordinates":[4.565580690169178,45.81990586851876]},"properties":{"name":"Savigny","population":2003,"contributions":9,"per_cent":0.449,"insee":"69175"}},{"type":"Feature","geometry":{"type":"Point","coordinates":[4.9124277733899815,45.20612601881617]},"properties":{"name":"Saint-Jean-de-Galaure","population":794,"contributions":36,"per_cent":4.534,"insee":"26216"}},{"type":"Feature","geometry":{"type":"Point","coordinates":[6.006872850460987,49.13756336606527]},"properties":{"name":"Vern\u00e9ville","population":634,"contributions":2,"per_cent":0.315,"insee":"57707"}},{"type":"Feature","geometry":{"type":"Point","coordinates":[-1.9896554346455948,47.06114251587163]},"properties":{"name":"Les Moutiers-en-Retz","population":1703,"contributions":41,"per_cent":2.408,"insee":"44106"}},{"type":"Feature","geometry":{"type":"Point","coordinates":[2.305206304512378,44.856280121503715]},"properties":{"name":"Saint-Mamet-la-Salvetat","population":1549,"contributions":2,"per_cent":0.129,"insee":"15196"}},{"type":"Feature","geometry":{"type":"Point","coordinates":[1.1574226558026182,49.570876573076355]},"properties":{"name":"Fontaine-le-Bourg","population":1784,"contributions":6,"per_cent":0.336,"insee":"76271"}},{"type":"Feature","geometry":{"type":"Point","coordinates":[6.25017815105374,45.92885067542891]},"properties":{"name":"Dingy-Saint-Clair","population":1438,"contributions":1,"per_cent":0.07,"insee":"74102"}},{"type":"Feature","geometry":{"type":"Point","coordinates":[-0.5092728141846984,44.71120734963273]},"properties":{"name":"Saint-M\u00e9dard-d'Eyrans","population":3040,"contributions":3,"per_cent":0.099,"insee":"33448"}},{"type":"Feature","geometry":{"type":"Point","coordinates":[2.2162747743462465,49.26936088749518]},"properties":{"name":"Novillers","population":366,"contributions":1,"per_cent":0.273,"insee":"60469"}},{"type":"Feature","geometry":{"type":"Point","coordinates":[-0.7963491225803069,45.545243980441676]},"properties":{"name":"\u00c9pargnes","population":854,"contributions":1,"per_cent":0.117,"insee":"17152"}},{"type":"Feature","geometry":{"type":"Point","coordinates":[1.5366801232154674,49.57730512677606]},"properties":{"name":"La Fert\u00e9-Saint-Samson","population":462,"contributions":1,"per_cent":0.216,"insee":"76261"}},{"type":"Feature","geometry":{"type":"Point","coordinates":[3.094790130311088,48.42007919001355]},"properties":{"name":"Ch\u00e2tenay-sur-Seine","population":1046,"contributions":1,"per_cent":0.096,"insee":"77101"}},{"type":"Feature","geometry":{"type":"Point","coordinates":[1.3867364605955532,45.85263600010105]},"properties":{"name":"Saint-Just-le-Martel","population":2670,"contributions":5,"per_cent":0.187,"insee":"87156"}},{"type":"Feature","geometry":{"type":"Point","coordinates":[5.2454576080156725,45.524007386381754]},"properties":{"name":"Culin","population":752,"contributions":3,"per_cent":0.399,"insee":"38141"}},{"type":"Feature","geometry":{"type":"Point","coordinates":[2.6143798678320955,48.52325416486036]},"properties":{"name":"Boissettes","population":404,"contributions":1,"per_cent":0.248,"insee":"77038"}},{"type":"Feature","geometry":{"type":"Point","coordinates":[7.26500781281866,43.75272106337363]},"properties":{"name":"Falicon","population":1994,"contributions":1,"per_cent":0.05,"insee":"06060"}},{"type":"Feature","geometry":{"type":"Point","coordinates":[2.220811485002703,42.93130311199986]},"properties":{"name":"Esp\u00e9raza","population":1800,"contributions":5,"per_cent":0.278,"insee":"11129"}},{"type":"Feature","geometry":{"type":"Point","coordinates":[2.9840788382730494,49.768754903966276]},"properties":{"name":"Voyennes","population":601,"contributions":1,"per_cent":0.166,"insee":"80811"}},{"type":"Feature","geometry":{"type":"Point","coordinates":[-1.5889356359848892,46.57302022992449]},"properties":{"name":"Le Girouard","population":1073,"contributions":3,"per_cent":0.28,"insee":"85099"}},{"type":"Feature","geometry":{"type":"Point","coordinates":[3.2401611226494436,45.64421525934167]},"properties":{"name":"Vic-le-Comte","population":5191,"contributions":54,"per_cent":1.04,"insee":"63457"}},{"type":"Feature","geometry":{"type":"Point","coordinates":[-3.410398312983865,48.288071874347686]},"properties":{"name":"Ma\u00ebl-Carhaix","population":1484,"contributions":1,"per_cent":0.067,"insee":"22137"}},{"type":"Feature","geometry":{"type":"Point","coordinates":[2.184852413347646,47.77908519567518]},"properties":{"name":"Tigy","population":2325,"contributions":1,"per_cent":0.043,"insee":"45324"}},{"type":"Feature","geometry":{"type":"Point","coordinates":[-1.835345452710538,47.29728255838397]},"properties":{"name":"Cordemais","population":3729,"contributions":64,"per_cent":1.716,"insee":"44045"}},{"type":"Feature","geometry":{"type":"Point","coordinates":[6.113469282958245,45.3802187485632]},"properties":{"name":"Allevard","population":4062,"contributions":4,"per_cent":0.098,"insee":"38006"}},{"type":"Feature","geometry":{"type":"Point","coordinates":[5.964051804898333,44.89019517650856]},"properties":{"name":"Entraigues","population":226,"contributions":1,"per_cent":0.442,"insee":"38154"}},{"type":"Feature","geometry":{"type":"Point","coordinates":[5.83713721323055,43.65898793363309]},"properties":{"name":"Ginasservis","population":1859,"contributions":7,"per_cent":0.377,"insee":"83066"}},{"type":"Feature","geometry":{"type":"Point","coordinates":[1.6490100817687183,47.84208618774076]},"properties":{"name":"Le Bardon","population":1011,"contributions":3,"per_cent":0.297,"insee":"45020"}},{"type":"Feature","geometry":{"type":"Point","coordinates":[-1.2648445438594238,48.397526117226775]},"properties":{"name":"Saint-Germain-en-Cogl\u00e8s","population":2053,"contributions":12,"per_cent":0.585,"insee":"35273"}},{"type":"Feature","geometry":{"type":"Point","coordinates":[0.6331097502995086,49.77563702445993]},"properties":{"name":"Cany-Barville","population":3051,"contributions":3,"per_cent":0.098,"insee":"76159"}},{"type":"Feature","geometry":{"type":"Point","coordinates":[2.9449731939910597,42.76389374660762]},"properties":{"name":"Claira","population":4250,"contributions":8,"per_cent":0.188,"insee":"66050"}},{"type":"Feature","geometry":{"type":"Point","coordinates":[6.489066560354966,43.5020912037059]},"properties":{"name":"Trans-en-Provence","population":5878,"contributions":3,"per_cent":0.051,"insee":"83141"}},{"type":"Feature","geometry":{"type":"Point","coordinates":[3.1127612034206704,48.90251750697653]},"properties":{"name":"Jouarre","population":4350,"contributions":19,"per_cent":0.437,"insee":"77238"}},{"type":"Feature","geometry":{"type":"Point","coordinates":[6.990666847688449,43.84942901095703]},"properties":{"name":"La Roque-en-Provence","population":73,"contributions":1,"per_cent":1.37,"insee":"06107"}},{"type":"Feature","geometry":{"type":"Point","coordinates":[6.212259135943947,46.15271477311552]},"properties":{"name":"Monnetier-Mornex","population":2304,"contributions":2,"per_cent":0.087,"insee":"74185"}},{"type":"Feature","geometry":{"type":"Point","coordinates":[-1.0162596577184355,43.35396541254877]},"properties":{"name":"A\u00efcirits-Camou-Suhast","population":669,"contributions":2,"per_cent":0.299,"insee":"64010"}},{"type":"Feature","geometry":{"type":"Point","coordinates":[1.6485623737429245,48.59741258693233]},"properties":{"name":"Hanches","population":2691,"contributions":32,"per_cent":1.189,"insee":"28191"}},{"type":"Feature","geometry":{"type":"Point","coordinates":[-1.0640605511537822,43.56128728547524]},"properties":{"name":"Cauneille","population":799,"contributions":1,"per_cent":0.125,"insee":"40077"}},{"type":"Feature","geometry":{"type":"Point","coordinates":[3.4036018804214696,47.27811499004003]},"properties":{"name":"Chazeuil","population":58,"contributions":1,"per_cent":1.724,"insee":"58070"}},{"type":"Feature","geometry":{"type":"Point","coordinates":[6.21872043997998,49.22775463781347]},"properties":{"name":"Ennery","population":2083,"contributions":3,"per_cent":0.144,"insee":"57193"}},{"type":"Feature","geometry":{"type":"Point","coordinates":[3.4468417372110998,48.54989301052892]},"properties":{"name":"Chalautre-la-Grande","population":692,"contributions":2,"per_cent":0.289,"insee":"77072"}},{"type":"Feature","geometry":{"type":"Point","coordinates":[6.783590357229201,43.72949325412378]},"properties":{"name":"Escragnolles","population":610,"contributions":1,"per_cent":0.164,"insee":"06058"}},{"type":"Feature","geometry":{"type":"Point","coordinates":[-0.9009830797271178,46.950868882097424]},"properties":{"name":"Saint-Laurent-sur-S\u00e8vre","population":3620,"contributions":55,"per_cent":1.519,"insee":"85238"}},{"type":"Feature","geometry":{"type":"Point","coordinates":[7.453747705812332,48.44735788469725]},"properties":{"name":"Bernardswiller","population":1446,"contributions":1,"per_cent":0.069,"insee":"67031"}},{"type":"Feature","geometry":{"type":"Point","coordinates":[2.1540855585003005,47.88331346553063]},"properties":{"name":"Saint-Denis-de-l'H\u00f4tel","population":3033,"contributions":5,"per_cent":0.165,"insee":"45273"}},{"type":"Feature","geometry":{"type":"Point","coordinates":[0.8824662470493643,48.60015894193896]},"properties":{"name":"La Fert\u00e9-Vidame","population":660,"contributions":3,"per_cent":0.455,"insee":"28149"}},{"type":"Feature","geometry":{"type":"Point","coordinates":[2.8554062928143926,43.210837137525026]},"properties":{"name":"Villedaigne","population":512,"contributions":10,"per_cent":1.953,"insee":"11421"}},{"type":"Feature","geometry":{"type":"Point","coordinates":[8.98392922831016,42.17828658636927]},"properties":{"name":"Guagno","population":163,"contributions":1,"per_cent":0.613,"insee":"2A131"}},{"type":"Feature","geometry":{"type":"Point","coordinates":[4.018973534895304,44.30646127991594]},"properties":{"name":"Chambon","population":263,"contributions":1,"per_cent":0.38,"insee":"30079"}},{"type":"Feature","geometry":{"type":"Point","coordinates":[-1.5282324936697247,47.61292561940792]},"properties":{"name":"Treffieux","population":902,"contributions":15,"per_cent":1.663,"insee":"44208"}},{"type":"Feature","geometry":{"type":"Point","coordinates":[6.101157269503284,49.240807378208196]},"properties":{"name":"Amn\u00e9ville","population":10505,"contributions":6,"per_cent":0.057,"insee":"57019"}},{"type":"Feature","geometry":{"type":"Point","coordinates":[6.09283479179748,43.16349908670301]},"properties":{"name":"La Crau","population":18506,"contributions":26,"per_cent":0.14,"insee":"83047"}},{"type":"Feature","geometry":{"type":"Point","coordinates":[-0.1186012589938983,44.5882987619532]},"properties":{"name":"Casseuil","population":391,"contributions":1,"per_cent":0.256,"insee":"33102"}},{"type":"Feature","geometry":{"type":"Point","coordinates":[2.9818442625958967,50.62490661548304]},"properties":{"name":"Sequedin","population":4739,"contributions":45,"per_cent":0.95,"insee":"59566"}},{"type":"Feature","geometry":{"type":"Point","coordinates":[1.2821787077026032,43.28140443623533]},"properties":{"name":"Lacaugne","population":229,"contributions":1,"per_cent":0.437,"insee":"31258"}},{"type":"Feature","geometry":{"type":"Point","coordinates":[1.3610371153679766,45.41054152364006]},"properties":{"name":"Arnac-Pompadour","population":1134,"contributions":1,"per_cent":0.088,"insee":"19011"}},{"type":"Feature","geometry":{"type":"Point","coordinates":[2.9968422040056457,45.093046190988396]},"properties":{"name":"Coltines","population":447,"contributions":1,"per_cent":0.224,"insee":"15053"}},{"type":"Feature","geometry":{"type":"Point","coordinates":[5.9170831907654895,45.55191853522549]},"properties":{"name":"Jacob-Bellecombette","population":4070,"contributions":36,"per_cent":0.885,"insee":"73137"}},{"type":"Feature","geometry":{"type":"Point","coordinates":[2.4660808668281264,49.0245883383236]},"properties":{"name":"Goussainville","population":30642,"contributions":49,"per_cent":0.16,"insee":"95280"}},{"type":"Feature","geometry":{"type":"Point","coordinates":[-3.7657070439880784,48.40302260650541]},"properties":{"name":"Berrien","population":907,"contributions":1,"per_cent":0.11,"insee":"29007"}},{"type":"Feature","geometry":{"type":"Point","coordinates":[6.44934515051555,43.40135201730829]},"properties":{"name":"Vidauban","population":12176,"contributions":2,"per_cent":0.016,"insee":"83148"}},{"type":"Feature","geometry":{"type":"Point","coordinates":[2.030960361331853,44.34987431538964]},"properties":{"name":"Villefranche-de-Rouergue","population":11781,"contributions":62,"per_cent":0.526,"insee":"12300"}},{"type":"Feature","geometry":{"type":"Point","coordinates":[5.902624979529096,47.30341486831107]},"properties":{"name":"Moncley","population":278,"contributions":12,"per_cent":4.317,"insee":"25383"}},{"type":"Feature","geometry":{"type":"Point","coordinates":[3.3448262799420907,48.3894748694053]},"properties":{"name":"Baby","population":95,"contributions":1,"per_cent":1.053,"insee":"77015"}},{"type":"Feature","geometry":{"type":"Point","coordinates":[-1.4416287824798963,43.462180695598626]},"properties":{"name":"Saint-Pierre-d'Irube","population":5167,"contributions":11,"per_cent":0.213,"insee":"64496"}},{"type":"Feature","geometry":{"type":"Point","coordinates":[2.811152209208024,50.41879039567343]},"properties":{"name":"\u00c9leu-dit-Leauwette","population":2880,"contributions":3,"per_cent":0.104,"insee":"62291"}},{"type":"Feature","geometry":{"type":"Point","coordinates":[-1.4756794745195139,49.00986742621033]},"properties":{"name":"Orval sur Sienne","population":1155,"contributions":2,"per_cent":0.173,"insee":"50388"}},{"type":"Feature","geometry":{"type":"Point","coordinates":[7.212428796392955,47.97031305819494]},"properties":{"name":"Soultzmatt","population":2402,"contributions":34,"per_cent":1.415,"insee":"68318"}},{"type":"Feature","geometry":{"type":"Point","coordinates":[4.496175994021575,47.355566708930866]},"properties":{"name":"Beurizot","population":121,"contributions":1,"per_cent":0.826,"insee":"21069"}},{"type":"Feature","geometry":{"type":"Point","coordinates":[3.391727112907122,44.070507964997695]},"properties":{"name":"Tr\u00e8ves","population":121,"contributions":1,"per_cent":0.826,"insee":"30332"}},{"type":"Feature","geometry":{"type":"Point","coordinates":[-0.35201692321817235,49.11484421222468]},"properties":{"name":"Saint-Martin-de-Fontenay","population":2541,"contributions":13,"per_cent":0.512,"insee":"14623"}},{"type":"Feature","geometry":{"type":"Point","coordinates":[5.604419046287948,43.76083768150452]},"properties":{"name":"Grambois","population":1239,"contributions":2,"per_cent":0.161,"insee":"84052"}},{"type":"Feature","geometry":{"type":"Point","coordinates":[-1.5931992031261517,48.596239897299675]},"properties":{"name":"Roz-sur-Couesnon","population":1000,"contributions":1,"per_cent":0.1,"insee":"35247"}},{"type":"Feature","geometry":{"type":"Point","coordinates":[1.3041684317063436,47.50359302824024]},"properties":{"name":"Les Montils","population":1919,"contributions":4,"per_cent":0.208,"insee":"41147"}},{"type":"Feature","geometry":{"type":"Point","coordinates":[3.3771440554689156,50.19124747920057]},"properties":{"name":"Avesnes-les-Aubert","population":3638,"contributions":1,"per_cent":0.027,"insee":"59037"}},{"type":"Feature","geometry":{"type":"Point","coordinates":[0.8300920379765704,47.204402453521624]},"properties":{"name":"Tauxigny-Saint-Bauld","population":1706,"contributions":2,"per_cent":0.117,"insee":"37254"}},{"type":"Feature","geometry":{"type":"Point","coordinates":[6.303440580738923,46.19706714619979]},"properties":{"name":"Cranves-Sales","population":6902,"contributions":4,"per_cent":0.058,"insee":"74094"}},{"type":"Feature","geometry":{"type":"Point","coordinates":[3.3753723217322307,44.12760156841992]},"properties":{"name":"Lanu\u00e9jols","population":355,"contributions":1,"per_cent":0.282,"insee":"30139"}},{"type":"Feature","geometry":{"type":"Point","coordinates":[2.251819072109561,48.62619175451036]},"properties":{"name":"Linas","population":6813,"contributions":57,"per_cent":0.837,"insee":"91339"}},{"type":"Feature","geometry":{"type":"Point","coordinates":[-1.942863279259336,48.29629668005712]},"properties":{"name":"B\u00e9cherel","population":679,"contributions":1,"per_cent":0.147,"insee":"35022"}},{"type":"Feature","geometry":{"type":"Point","coordinates":[-60.905214954157756,14.606407627264698]},"properties":{"name":"Le Fran\u00e7ois","population":16423,"contributions":1,"per_cent":0.006,"insee":"97210"}},{"type":"Feature","geometry":{"type":"Point","coordinates":[5.779313530031822,46.64976262517049]},"properties":{"name":"Doucier","population":289,"contributions":3,"per_cent":1.038,"insee":"39201"}},{"type":"Feature","geometry":{"type":"Point","coordinates":[6.173140886066268,48.62064122238471]},"properties":{"name":"Ludres","population":6134,"contributions":15,"per_cent":0.245,"insee":"54328"}},{"type":"Feature","geometry":{"type":"Point","coordinates":[-4.3638563976131906,47.961160213664726]},"properties":{"name":"Pouldreuzic","population":2165,"contributions":11,"per_cent":0.508,"insee":"29225"}},{"type":"Feature","geometry":{"type":"Point","coordinates":[4.910200166079224,45.49281791275184]},"properties":{"name":"Jardin","population":2181,"contributions":3,"per_cent":0.138,"insee":"38199"}},{"type":"Feature","geometry":{"type":"Point","coordinates":[5.4397149642118094,43.651614069794306]},"properties":{"name":"Le Puy-Sainte-R\u00e9parade","population":5744,"contributions":59,"per_cent":1.027,"insee":"13080"}},{"type":"Feature","geometry":{"type":"Point","coordinates":[6.184339748513097,49.21160202478514]},"properties":{"name":"Hauconcourt","population":611,"contributions":2,"per_cent":0.327,"insee":"57303"}},{"type":"Feature","geometry":{"type":"Point","coordinates":[1.0964583136283113,47.34952637049463]},"properties":{"name":"Chisseaux","population":584,"contributions":3,"per_cent":0.514,"insee":"37073"}},{"type":"Feature","geometry":{"type":"Point","coordinates":[1.2954711128561487,48.750934306943414]},"properties":{"name":"Vert-en-Drouais","population":1075,"contributions":2,"per_cent":0.186,"insee":"28405"}},{"type":"Feature","geometry":{"type":"Point","coordinates":[-1.328259673883019,43.74971877004335]},"properties":{"name":"Soustons","population":8056,"contributions":57,"per_cent":0.708,"insee":"40310"}},{"type":"Feature","geometry":{"type":"Point","coordinates":[3.531555230650186,44.398467640841254]},"properties":{"name":"Ispagnac","population":893,"contributions":1,"per_cent":0.112,"insee":"48075"}},{"type":"Feature","geometry":{"type":"Point","coordinates":[5.103515994740335,45.71798516350982]},"properties":{"name":"Colombier-Saugnieu","population":2657,"contributions":3,"per_cent":0.113,"insee":"69299"}},{"type":"Feature","geometry":{"type":"Point","coordinates":[1.1036262211553836,49.591061486448375]},"properties":{"name":"Cl\u00e8res","population":1372,"contributions":12,"per_cent":0.875,"insee":"76179"}},{"type":"Feature","geometry":{"type":"Point","coordinates":[2.339952237421652,50.596919535496184]},"properties":{"name":"Liettres","population":331,"contributions":1,"per_cent":0.302,"insee":"62509"}},{"type":"Feature","geometry":{"type":"Point","coordinates":[-0.4847868714299515,47.86094159148777]},"properties":{"name":"Bou\u00e8re","population":1077,"contributions":1,"per_cent":0.093,"insee":"53036"}},{"type":"Feature","geometry":{"type":"Point","coordinates":[2.709669253089996,49.574554297617155]},"properties":{"name":"Orvillers-Sorel","population":521,"contributions":1,"per_cent":0.192,"insee":"60483"}},{"type":"Feature","geometry":{"type":"Point","coordinates":[-0.2625583871784754,44.61669178651939]},"properties":{"name":"Gabarnac","population":348,"contributions":1,"per_cent":0.287,"insee":"33176"}},{"type":"Feature","geometry":{"type":"Point","coordinates":[-1.3319861906846695,47.233256769780915]},"properties":{"name":"Le Loroux-Bottereau","population":8327,"contributions":155,"per_cent":1.861,"insee":"44084"}},{"type":"Feature","geometry":{"type":"Point","coordinates":[2.6380696327292563,49.25351638839763]},"properties":{"name":"Villers-Saint-Frambourg-Ognon","population":712,"contributions":1,"per_cent":0.14,"insee":"60682"}},{"type":"Feature","geometry":{"type":"Point","coordinates":[6.228988915515935,43.56168514447751]},"properties":{"name":"Salernes","population":3800,"contributions":1,"per_cent":0.026,"insee":"83121"}},{"type":"Feature","geometry":{"type":"Point","coordinates":[2.708488448139672,49.086841439717055]},"properties":{"name":"\u00c8ve","population":421,"contributions":1,"per_cent":0.238,"insee":"60226"}},{"type":"Feature","geometry":{"type":"Point","coordinates":[5.989604107807174,45.533002513098246]},"properties":{"name":"Saint-Jeoire-Prieur\u00e9","population":1765,"contributions":5,"per_cent":0.283,"insee":"73249"}},{"type":"Feature","geometry":{"type":"Point","coordinates":[5.249376938089289,43.52391496682288]},"properties":{"name":"Velaux","population":8616,"contributions":79,"per_cent":0.917,"insee":"13112"}},{"type":"Feature","geometry":{"type":"Point","coordinates":[9.473988533144892,42.51577103004164]},"properties":{"name":"Vescovato","population":2855,"contributions":6,"per_cent":0.21,"insee":"2B346"}},{"type":"Feature","geometry":{"type":"Point","coordinates":[1.707123080506464,49.06207736345757]},"properties":{"name":"V\u00e9theuil","population":871,"contributions":1,"per_cent":0.115,"insee":"95651"}},{"type":"Feature","geometry":{"type":"Point","coordinates":[0.11837370630946172,44.28295848599078]},"properties":{"name":"La R\u00e9union","population":492,"contributions":1,"per_cent":0.203,"insee":"47222"}},{"type":"Feature","geometry":{"type":"Point","coordinates":[-1.5049117466710844,46.77027560257463]},"properties":{"name":"Le Poir\u00e9-sur-Vie","population":8530,"contributions":89,"per_cent":1.043,"insee":"85178"}},{"type":"Feature","geometry":{"type":"Point","coordinates":[-0.5520561316140083,45.733983239908156]},"properties":{"name":"Chaniers","population":3588,"contributions":1,"per_cent":0.028,"insee":"17086"}},{"type":"Feature","geometry":{"type":"Point","coordinates":[1.5958174993741285,42.84684815512521]},"properties":{"name":"Tarascon-sur-Ari\u00e8ge","population":3028,"contributions":9,"per_cent":0.297,"insee":"09306"}},{"type":"Feature","geometry":{"type":"Point","coordinates":[5.625452845506746,43.43975310588705]},"properties":{"name":"Peynier","population":3513,"contributions":55,"per_cent":1.566,"insee":"13072"}},{"type":"Feature","geometry":{"type":"Point","coordinates":[4.424278569233498,46.83852447638433]},"properties":{"name":"Saint-Sernin-du-Bois","population":1775,"contributions":3,"per_cent":0.169,"insee":"71479"}},{"type":"Feature","geometry":{"type":"Point","coordinates":[4.946774146964436,44.87405921964636]},"properties":{"name":"Beaumont-l\u00e8s-Valence","population":3815,"contributions":5,"per_cent":0.131,"insee":"26037"}},{"type":"Feature","geometry":{"type":"Point","coordinates":[0.9872722752399383,47.307624597849035]},"properties":{"name":"Bl\u00e9r\u00e9","population":5250,"contributions":60,"per_cent":1.143,"insee":"37027"}},{"type":"Feature","geometry":{"type":"Point","coordinates":[-3.037664422933633,48.30991342390647]},"properties":{"name":"Corlay","population":945,"contributions":1,"per_cent":0.106,"insee":"22047"}},{"type":"Feature","geometry":{"type":"Point","coordinates":[2.48413664737167,49.253176825274856]},"properties":{"name":"Creil","population":35800,"contributions":68,"per_cent":0.19,"insee":"60175"}},{"type":"Feature","geometry":{"type":"Point","coordinates":[-1.9317864716205941,48.33563642058643]},"properties":{"name":"Saint-Thual","population":931,"contributions":2,"per_cent":0.215,"insee":"35318"}},{"type":"Feature","geometry":{"type":"Point","coordinates":[1.8370577164887514,48.84604443624631]},"properties":{"name":"Saulx-Marchais","population":946,"contributions":4,"per_cent":0.423,"insee":"78588"}},{"type":"Feature","geometry":{"type":"Point","coordinates":[1.6986755650391177,43.60565132411434]},"properties":{"name":"Bourg-Saint-Bernard","population":1089,"contributions":1,"per_cent":0.092,"insee":"31082"}},{"type":"Feature","geometry":{"type":"Point","coordinates":[-3.483272137839892,48.61949008013532]},"properties":{"name":"Plouaret","population":2158,"contributions":8,"per_cent":0.371,"insee":"22207"}},{"type":"Feature","geometry":{"type":"Point","coordinates":[-1.5526211501999467,49.12951470639625]},"properties":{"name":"Geffosses","population":455,"contributions":1,"per_cent":0.22,"insee":"50198"}},{"type":"Feature","geometry":{"type":"Point","coordinates":[-1.380768146861545,49.08712932988743]},"properties":{"name":"Cambernon","population":699,"contributions":3,"per_cent":0.429,"insee":"50092"}},{"type":"Feature","geometry":{"type":"Point","coordinates":[2.43984277303044,48.9074353766654]},"properties":{"name":"Bobigny","population":54272,"contributions":71,"per_cent":0.131,"insee":"93008"}},{"type":"Feature","geometry":{"type":"Point","coordinates":[5.017073791704936,44.982191107241114]},"properties":{"name":"Alixan","population":2503,"contributions":3,"per_cent":0.12,"insee":"26004"}},{"type":"Feature","geometry":{"type":"Point","coordinates":[1.7817748683783967,43.89768258004258]},"properties":{"name":"Lisle-sur-Tarn","population":4682,"contributions":37,"per_cent":0.79,"insee":"81145"}},{"type":"Feature","geometry":{"type":"Point","coordinates":[5.893688892753121,49.367566883724535]},"properties":{"name":"Audun-le-Roman","population":2467,"contributions":1,"per_cent":0.041,"insee":"54029"}},{"type":"Feature","geometry":{"type":"Point","coordinates":[6.587395219668414,45.370138123812566]},"properties":{"name":"Les Allues","population":1857,"contributions":3,"per_cent":0.162,"insee":"73015"}},{"type":"Feature","geometry":{"type":"Point","coordinates":[4.552337536860952,47.2053290229767]},"properties":{"name":"Meilly-sur-Rouvres","population":205,"contributions":3,"per_cent":1.463,"insee":"21399"}},{"type":"Feature","geometry":{"type":"Point","coordinates":[1.9130051805499144,46.15721697657115]},"properties":{"name":"Sainte-Feyre","population":2472,"contributions":4,"per_cent":0.162,"insee":"23193"}},{"type":"Feature","geometry":{"type":"Point","coordinates":[3.006222335138361,45.93693233301613]},"properties":{"name":"Loubeyrat","population":1362,"contributions":2,"per_cent":0.147,"insee":"63198"}},{"type":"Feature","geometry":{"type":"Point","coordinates":[6.425694211515348,46.231742722511136]},"properties":{"name":"Burdignin","population":651,"contributions":1,"per_cent":0.154,"insee":"74050"}},{"type":"Feature","geometry":{"type":"Point","coordinates":[5.681882498917277,47.109914172475754]},"properties":{"name":"\u00c9trepigney","population":428,"contributions":1,"per_cent":0.234,"insee":"39218"}},{"type":"Feature","geometry":{"type":"Point","coordinates":[1.5133875285298781,48.492076143673465]},"properties":{"name":"Saint-Prest","population":2052,"contributions":19,"per_cent":0.926,"insee":"28358"}},{"type":"Feature","geometry":{"type":"Point","coordinates":[7.546615928548801,48.077335299301616]},"properties":{"name":"Kunheim","population":1779,"contributions":1,"per_cent":0.056,"insee":"68172"}},{"type":"Feature","geometry":{"type":"Point","coordinates":[5.342416741044117,49.2036423001493]},"properties":{"name":"Charny-sur-Meuse","population":521,"contributions":1,"per_cent":0.192,"insee":"55102"}},{"type":"Feature","geometry":{"type":"Point","coordinates":[0.9455766460454369,43.080451908864994]},"properties":{"name":"Mane","population":959,"contributions":2,"per_cent":0.209,"insee":"31315"}},{"type":"Feature","geometry":{"type":"Point","coordinates":[4.794766808905033,46.91491925573465]},"properties":{"name":"Chaudenay","population":1114,"contributions":2,"per_cent":0.18,"insee":"71119"}},{"type":"Feature","geometry":{"type":"Point","coordinates":[-1.194688868357175,48.27100866198818]},"properties":{"name":"Parc\u00e9","population":650,"contributions":5,"per_cent":0.769,"insee":"35214"}},{"type":"Feature","geometry":{"type":"Point","coordinates":[4.147499056820052,49.33724512162216]},"properties":{"name":"Pomacle","population":454,"contributions":2,"per_cent":0.441,"insee":"51439"}},{"type":"Feature","geometry":{"type":"Point","coordinates":[2.10563438111971,42.89036305340478]},"properties":{"name":"N\u00e9bias","population":253,"contributions":1,"per_cent":0.395,"insee":"11263"}},{"type":"Feature","geometry":{"type":"Point","coordinates":[1.1293574898420609,48.29101180449478]},"properties":{"name":"Montigny-le-Chartif","population":608,"contributions":2,"per_cent":0.329,"insee":"28261"}},{"type":"Feature","geometry":{"type":"Point","coordinates":[-2.8428614555066916,47.66179074347632]},"properties":{"name":"Ploeren","population":6601,"contributions":58,"per_cent":0.879,"insee":"56164"}},{"type":"Feature","geometry":{"type":"Point","coordinates":[6.033180557010617,43.88591902069461]},"properties":{"name":"Brunet","population":290,"contributions":1,"per_cent":0.345,"insee":"04035"}},{"type":"Feature","geometry":{"type":"Point","coordinates":[-1.5724668668960264,49.07326970354395]},"properties":{"name":"Blainville-sur-Mer","population":1637,"contributions":14,"per_cent":0.855,"insee":"50058"}},{"type":"Feature","geometry":{"type":"Point","coordinates":[-0.5255726243266715,44.90833297683276]},"properties":{"name":"Bassens","population":7404,"contributions":32,"per_cent":0.432,"insee":"33032"}},{"type":"Feature","geometry":{"type":"Point","coordinates":[0.18848066341153685,43.35848742153061]},"properties":{"name":"S\u00e9nac","population":293,"contributions":1,"per_cent":0.341,"insee":"65418"}},{"type":"Feature","geometry":{"type":"Point","coordinates":[1.7794528608818712,49.00765004630246]},"properties":{"name":"Guitrancourt","population":619,"contributions":1,"per_cent":0.162,"insee":"78296"}},{"type":"Feature","geometry":{"type":"Point","coordinates":[-2.93397995834822,47.85579450250145]},"properties":{"name":"La Chapelle-Neuve","population":979,"contributions":1,"per_cent":0.102,"insee":"56039"}},{"type":"Feature","geometry":{"type":"Point","coordinates":[-1.8438885178903446,47.17653955921806]},"properties":{"name":"Rouans","population":3015,"contributions":57,"per_cent":1.891,"insee":"44145"}},{"type":"Feature","geometry":{"type":"Point","coordinates":[8.760066588044742,42.54505243634865]},"properties":{"name":"Calvi","population":5666,"contributions":50,"per_cent":0.882,"insee":"2B050"}},{"type":"Feature","geometry":{"type":"Point","coordinates":[2.178815178432746,48.91163694931134]},"properties":{"name":"Carri\u00e8res-sur-Seine","population":15003,"contributions":300,"per_cent":2,"insee":"78124"}},{"type":"Feature","geometry":{"type":"Point","coordinates":[5.163831592942104,46.65331854838035]},"properties":{"name":"Branges","population":2359,"contributions":6,"per_cent":0.254,"insee":"71056"}},{"type":"Feature","geometry":{"type":"Point","coordinates":[1.6630614230792875,49.0834748649333]},"properties":{"name":"Haute-Isle","population":282,"contributions":1,"per_cent":0.355,"insee":"95301"}},{"type":"Feature","geometry":{"type":"Point","coordinates":[-0.904618878265851,44.02744426066258]},"properties":{"name":"Morcenx-la-Nouvelle","population":5022,"contributions":5,"per_cent":0.1,"insee":"40197"}},{"type":"Feature","geometry":{"type":"Point","coordinates":[-3.161736554927675,47.672409748649926]},"properties":{"name":"Belz","population":3735,"contributions":53,"per_cent":1.419,"insee":"56013"}},{"type":"Feature","geometry":{"type":"Point","coordinates":[3.202062588812783,46.01432873968378]},"properties":{"name":"Aigueperse","population":2756,"contributions":1,"per_cent":0.036,"insee":"63001"}},{"type":"Feature","geometry":{"type":"Point","coordinates":[-1.3138456079406102,48.08232593066305]},"properties":{"name":"Cornill\u00e9","population":965,"contributions":3,"per_cent":0.311,"insee":"35087"}},{"type":"Feature","geometry":{"type":"Point","coordinates":[-0.5848013292834244,46.33727496249751]},"properties":{"name":"Coulon","population":2262,"contributions":4,"per_cent":0.177,"insee":"79100"}},{"type":"Feature","geometry":{"type":"Point","coordinates":[0.48649894926687576,44.8543050612872]},"properties":{"name":"Bergerac","population":26823,"contributions":317,"per_cent":1.182,"insee":"24037"}},{"type":"Feature","geometry":{"type":"Point","coordinates":[7.608530445671291,48.50180372024974]},"properties":{"name":"Blaesheim","population":1307,"contributions":1,"per_cent":0.077,"insee":"67049"}},{"type":"Feature","geometry":{"type":"Point","coordinates":[6.523333215052187,48.19688120306255]},"properties":{"name":"Deyvillers","population":1389,"contributions":64,"per_cent":4.608,"insee":"88132"}},{"type":"Feature","geometry":{"type":"Point","coordinates":[2.120010328996373,49.20697936404586]},"properties":{"name":"Amblainville","population":1748,"contributions":3,"per_cent":0.172,"insee":"60010"}},{"type":"Feature","geometry":{"type":"Point","coordinates":[4.6198402827069005,46.959088862864036]},"properties":{"name":"Nolay","population":1450,"contributions":1,"per_cent":0.069,"insee":"21461"}},{"type":"Feature","geometry":{"type":"Point","coordinates":[5.556189552390123,48.74632426063669]},"properties":{"name":"Commercy","population":5399,"contributions":14,"per_cent":0.259,"insee":"55122"}},{"type":"Feature","geometry":{"type":"Point","coordinates":[7.537144267097882,43.99392340152135]},