{"type":"FeatureCollection","features":[{"type":"Feature","geometry":{"type":"Point","coordinates":[-0.8125674951687688,48.14038121010345]},"properties":{"name":"Saint-Germain-le-Fouilloux","contributions":2,"per_cent":0.171,"insee":"53224"}},{"type":"Feature","geometry":{"type":"Point","coordinates":[0.987271103507651,47.30762507741961]},"properties":{"name":"Bl\u00e9r\u00e9","contributions":3,"per_cent":0.057,"insee":"37027"}},{"type":"Feature","geometry":{"type":"Point","coordinates":[3.9523298572061862,43.561092186112724]},"properties":{"name":"P\u00e9rols","contributions":70,"per_cent":0.778,"insee":"34198"}},{"type":"Feature","geometry":{"type":"Point","coordinates":[-0.5848010538877234,46.33727453792487]},"properties":{"name":"Coulon","contributions":7,"per_cent":0.309,"insee":"79100"}},{"type":"Feature","geometry":{"type":"Point","coordinates":[1.2622439408685255,47.60277977700592]},"properties":{"name":"Saint-Sulpice-de-Pommeray","contributions":1,"per_cent":0.054,"insee":"41230"}},{"type":"Feature","geometry":{"type":"Point","coordinates":[2.207385973817118,48.440625713361435]},"properties":{"name":"Morigny-Champigny","contributions":4,"per_cent":0.092,"insee":"91433"}},{"type":"Feature","geometry":{"type":"Point","coordinates":[5.820773429925088,47.18558065775349]},"properties":{"name":"Saint-Vit","contributions":3,"per_cent":0.062,"insee":"25527"}},{"type":"Feature","geometry":{"type":"Point","coordinates":[2.7571852469278157,50.486691643350376]},"properties":{"name":"Vermelles","contributions":3,"per_cent":0.063,"insee":"62846"}},{"type":"Feature","geometry":{"type":"Point","coordinates":[0.1422919448521561,47.8843444239599]},"properties":{"name":"Gu\u00e9c\u00e9lard","contributions":10,"per_cent":0.327,"insee":"72146"}},{"type":"Feature","geometry":{"type":"Point","coordinates":[-1.4007046099944118,47.16169022423967]},"properties":{"name":"La Haie-Fouassi\u00e8re","contributions":14,"per_cent":0.299,"insee":"44070"}},{"type":"Feature","geometry":{"type":"Point","coordinates":[-1.1443377238188588,47.43783327236385]},"properties":{"name":"La Roche-Blanche","contributions":2,"per_cent":0.165,"insee":"44222"}},{"type":"Feature","geometry":{"type":"Point","coordinates":[-0.30126959161865563,49.27463110190699]},"properties":{"name":"Colleville-Montgomery","contributions":7,"per_cent":0.28,"insee":"14166"}},{"type":"Feature","geometry":{"type":"Point","coordinates":[5.624362027681234,43.483978045203344]},"properties":{"name":"Rousset","contributions":57,"per_cent":1.168,"insee":"13087"}},{"type":"Feature","geometry":{"type":"Point","coordinates":[-1.0679951642983285,46.18380885499878]},"properties":{"name":"Dompierre-sur-Mer","contributions":101,"per_cent":1.817,"insee":"17142"}},{"type":"Feature","geometry":{"type":"Point","coordinates":[0.7113799878871798,45.864058637161236]},"properties":{"name":"Chabanais","contributions":1,"per_cent":0.062,"insee":"16070"}},{"type":"Feature","geometry":{"type":"Point","coordinates":[-0.7951931099361713,47.05976410162737]},"properties":{"name":"Mazi\u00e8res-en-Mauges","contributions":3,"per_cent":0.25,"insee":"49195"}},{"type":"Feature","geometry":{"type":"Point","coordinates":[7.346071213858637,47.5582328226326]},"properties":{"name":"Steinsoultz","contributions":1,"per_cent":0.132,"insee":"68325"}},{"type":"Feature","geometry":{"type":"Point","coordinates":[7.604403380623368,48.42501030269663]},"properties":{"name":"Bolsenheim","contributions":1,"per_cent":0.186,"insee":"67054"}},{"type":"Feature","geometry":{"type":"Point","coordinates":[1.781774687477812,43.89768259748164]},"properties":{"name":"Lisle-sur-Tarn","contributions":4,"per_cent":0.085,"insee":"81145"}},{"type":"Feature","geometry":{"type":"Point","coordinates":[5.865168462004136,43.76760115613879]},"properties":{"name":"Gr\u00e9oux-les-Bains","contributions":1,"per_cent":0.038,"insee":"04094"}},{"type":"Feature","geometry":{"type":"Point","coordinates":[5.817672741716314,48.110556772793124]},"properties":{"name":"Martigny-les-Bains","contributions":1,"per_cent":0.123,"insee":"88289"}},{"type":"Feature","geometry":{"type":"Point","coordinates":[0.6196528447568955,48.226926014576854]},"properties":{"name":"Pr\u00e9val","contributions":1,"per_cent":0.145,"insee":"72245"}},{"type":"Feature","geometry":{"type":"Point","coordinates":[5.4705937369167,45.58950053761873]},"properties":{"name":"La Chapelle-de-la-Tour","contributions":3,"per_cent":0.163,"insee":"38076"}},{"type":"Feature","geometry":{"type":"Point","coordinates":[0.8972308401950393,49.19989112190527]},"properties":{"name":"La Pyle","contributions":1,"per_cent":0.599,"insee":"27482"}},{"type":"Feature","geometry":{"type":"Point","coordinates":[3.275538655093287,50.35995048122803]},"properties":{"name":"Somain","contributions":2,"per_cent":0.016,"insee":"59574"}},{"type":"Feature","geometry":{"type":"Point","coordinates":[1.2550543847340416,49.452615617619784]},"properties":{"name":"Bois-l'\u00c9v\u00eaque","contributions":1,"per_cent":0.173,"insee":"76111"}},{"type":"Feature","geometry":{"type":"Point","coordinates":[1.3891699218710116,44.464804900872316]},"properties":{"name":"Pradines","contributions":5,"per_cent":0.142,"insee":"46224"}},{"type":"Feature","geometry":{"type":"Point","coordinates":[6.256672193854033,49.486400747015104]},"properties":{"name":"Puttelange-l\u00e8s-Thionville","contributions":1,"per_cent":0.101,"insee":"57557"}},{"type":"Feature","geometry":{"type":"Point","coordinates":[6.262790409716209,49.336451058613086]},"properties":{"name":"Distroff","contributions":1,"per_cent":0.056,"insee":"57179"}},{"type":"Feature","geometry":{"type":"Point","coordinates":[-1.8653335526715475,48.683242622260856]},"properties":{"name":"Cancale","contributions":78,"per_cent":1.515,"insee":"35049"}},{"type":"Feature","geometry":{"type":"Point","coordinates":[5.593739751019372,43.51674241245716]},"properties":{"name":"Saint-Antonin-sur-Bayon","contributions":1,"per_cent":0.813,"insee":"13090"}},{"type":"Feature","geometry":{"type":"Point","coordinates":[-0.5666068813352899,47.53802898232098]},"properties":{"name":"Cantenay-\u00c9pinard","contributions":81,"per_cent":3.496,"insee":"49055"}},{"type":"Feature","geometry":{"type":"Point","coordinates":[0.5255269387173839,44.375829435112244]},"properties":{"name":"Le Temple-sur-Lot","contributions":1,"per_cent":0.096,"insee":"47306"}},{"type":"Feature","geometry":{"type":"Point","coordinates":[3.001852260369776,42.79421965583597]},"properties":{"name":"Saint-Laurent-de-la-Salanque","contributions":57,"per_cent":0.561,"insee":"66180"}},{"type":"Feature","geometry":{"type":"Point","coordinates":[2.0309606384563725,44.34987578175417]},"properties":{"name":"Villefranche-de-Rouergue","contributions":59,"per_cent":0.501,"insee":"12300"}},{"type":"Feature","geometry":{"type":"Point","coordinates":[9.328627274523413,41.97183196454568]},"properties":{"name":"Serra-di-Fiumorbo","contributions":1,"per_cent":0.295,"insee":"2B277"}},{"type":"Feature","geometry":{"type":"Point","coordinates":[2.1545933204039485,48.64639771449063]},"properties":{"name":"Janvry","contributions":3,"per_cent":0.472,"insee":"91319"}},{"type":"Feature","geometry":{"type":"Point","coordinates":[1.3587170831906261,43.4274121726428]},"properties":{"name":"Eaunes","contributions":6,"per_cent":0.096,"insee":"31165"}},{"type":"Feature","geometry":{"type":"Point","coordinates":[2.199063510345368,48.73076814295058]},"properties":{"name":"Vauhallan","contributions":66,"per_cent":3.185,"insee":"91635"}},{"type":"Feature","geometry":{"type":"Point","coordinates":[4.488499277439879,43.80534129722725]},"properties":{"name":"Manduel","contributions":2,"per_cent":0.029,"insee":"30155"}},{"type":"Feature","geometry":{"type":"Point","coordinates":[5.115061338692574,47.31939983873654]},"properties":{"name":"Quetigny","contributions":64,"per_cent":0.691,"insee":"21515"}},{"type":"Feature","geometry":{"type":"Point","coordinates":[2.880922805106812,50.19849524407919]},"properties":{"name":"Croisilles","contributions":1,"per_cent":0.051,"insee":"62259"}},{"type":"Feature","geometry":{"type":"Point","coordinates":[2.7702675220939357,48.87218616648128]},"properties":{"name":"Chessy","contributions":17,"per_cent":0.285,"insee":"77111"}},{"type":"Feature","geometry":{"type":"Point","coordinates":[3.395619445555896,48.90688215490903]},"properties":{"name":"Viels-Maisons","contributions":1,"per_cent":0.081,"insee":"02798"}},{"type":"Feature","geometry":{"type":"Point","coordinates":[6.189766212628602,43.101695609179245]},"properties":{"name":"Hy\u00e8res","contributions":102,"per_cent":0.185,"insee":"83069"}},{"type":"Feature","geometry":{"type":"Point","coordinates":[7.508555907183881,48.094314718118866]},"properties":{"name":"Durrenentzen","contributions":1,"per_cent":0.107,"insee":"68076"}},{"type":"Feature","geometry":{"type":"Point","coordinates":[3.723271944431493,43.49420790746787]},"properties":{"name":"Gigean","contributions":11,"per_cent":0.171,"insee":"34113"}},{"type":"Feature","geometry":{"type":"Point","coordinates":[1.993248997921873,49.12317392842263]},"properties":{"name":"Fr\u00e9m\u00e9court","contributions":1,"per_cent":0.177,"insee":"95254"}},{"type":"Feature","geometry":{"type":"Point","coordinates":[4.421243948578271,45.947415465563395]},"properties":{"name":"Valsonne","contributions":1,"per_cent":0.103,"insee":"69254"}},{"type":"Feature","geometry":{"type":"Point","coordinates":[1.3285752873575012,45.76215850847072]},"properties":{"name":"Boisseuil","contributions":2,"per_cent":0.068,"insee":"87019"}},{"type":"Feature","geometry":{"type":"Point","coordinates":[2.2669297135099615,48.685086033476765]},"properties":{"name":"Saulx-les-Chartreux","contributions":60,"per_cent":0.962,"insee":"91587"}},{"type":"Feature","geometry":{"type":"Point","coordinates":[3.7496443097236365,43.5855626289744]},"properties":{"name":"Pignan","contributions":80,"per_cent":1.09,"insee":"34202"}},{"type":"Feature","geometry":{"type":"Point","coordinates":[0.6080469067330233,44.139749407945196]},"properties":{"name":"Moirax","contributions":1,"per_cent":0.086,"insee":"47169"}},{"type":"Feature","geometry":{"type":"Point","coordinates":[-4.401236783334645,48.40322106933007]},"properties":{"name":"Le Relecq-Kerhuon","contributions":143,"per_cent":1.23,"insee":"29235"}},{"type":"Feature","geometry":{"type":"Point","coordinates":[3.219848561200635,49.2842109491903]},"properties":{"name":"Longpont","contributions":1,"per_cent":0.392,"insee":"02438"}},{"type":"Feature","geometry":{"type":"Point","coordinates":[1.171788643363895,43.377850172229394]},"properties":{"name":"B\u00e9rat","contributions":2,"per_cent":0.066,"insee":"31065"}},{"type":"Feature","geometry":{"type":"Point","coordinates":[2.1897712262271245,48.0984163638578]},"properties":{"name":"Mareau-aux-Bois","contributions":1,"per_cent":0.175,"insee":"45195"}},{"type":"Feature","geometry":{"type":"Point","coordinates":[2.0936115415435377,46.07471237383056]},"properties":{"name":"Lavaveix-les-Mines","contributions":1,"per_cent":0.154,"insee":"23105"}},{"type":"Feature","geometry":{"type":"Point","coordinates":[-4.198544210028614,48.27137602025614]},"properties":{"name":"Rosno\u00ebn","contributions":2,"per_cent":0.209,"insee":"29240"}},{"type":"Feature","geometry":{"type":"Point","coordinates":[-1.8951250036096654,48.524731830241414]},"properties":{"name":"Miniac-Morvan","contributions":2,"per_cent":0.05,"insee":"35179"}},{"type":"Feature","geometry":{"type":"Point","coordinates":[0.9808942236886009,43.61295391655028]},"properties":{"name":"Monferran-Sav\u00e8s","contributions":1,"per_cent":0.123,"insee":"32268"}},{"type":"Feature","geometry":{"type":"Point","coordinates":[-0.06696609080293445,47.2279793713568]},"properties":{"name":"Varrains","contributions":2,"per_cent":0.164,"insee":"49362"}},{"type":"Feature","geometry":{"type":"Point","coordinates":[-1.641251560146986,46.98749969331432]},"properties":{"name":"La Limouzini\u00e8re","contributions":4,"per_cent":0.164,"insee":"44083"}},{"type":"Feature","geometry":{"type":"Point","coordinates":[5.909357829347549,47.17016681251889]},"properties":{"name":"Thoraise","contributions":1,"per_cent":0.282,"insee":"25561"}},{"type":"Feature","geometry":{"type":"Point","coordinates":[3.902143886011312,43.56353360764177]},"properties":{"name":"Lattes","contributions":125,"per_cent":0.748,"insee":"34129"}},{"type":"Feature","geometry":{"type":"Point","coordinates":[-1.822575993339809,48.42049115054012]},"properties":{"name":"Meillac","contributions":1,"per_cent":0.053,"insee":"35172"}},{"type":"Feature","geometry":{"type":"Point","coordinates":[-2.9228678032277813,47.727805712335496]},"properties":{"name":"Plumergat","contributions":3,"per_cent":0.072,"insee":"56175"}},{"type":"Feature","geometry":{"type":"Point","coordinates":[2.734764196459295,49.39924342293182]},"properties":{"name":"Jonqui\u00e8res","contributions":1,"per_cent":0.165,"insee":"60326"}},{"type":"Feature","geometry":{"type":"Point","coordinates":[2.404581275356001,48.97042333171229]},"properties":{"name":"Garges-l\u00e8s-Gonesse","contributions":6,"per_cent":0.014,"insee":"95268"}},{"type":"Feature","geometry":{"type":"Point","coordinates":[3.2584484970250758,43.43775812987919]},"properties":{"name":"Espondeilhan","contributions":1,"per_cent":0.093,"insee":"34094"}},{"type":"Feature","geometry":{"type":"Point","coordinates":[6.389248549411278,48.27612420097315]},"properties":{"name":"Igney","contributions":1,"per_cent":0.086,"insee":"88247"}},{"type":"Feature","geometry":{"type":"Point","coordinates":[6.040515621615466,43.340180552707686]},"properties":{"name":"Gar\u00e9oult","contributions":3,"per_cent":0.056,"insee":"83064"}},{"type":"Feature","geometry":{"type":"Point","coordinates":[7.682239244726206,48.57982003014956]},"properties":{"name":"Eckbolsheim","contributions":78,"per_cent":1.117,"insee":"67118"}},{"type":"Feature","geometry":{"type":"Point","coordinates":[-0.9154976150650219,45.34372056600818]},"properties":{"name":"Civrac-en-M\u00e9doc","contributions":1,"per_cent":0.148,"insee":"33128"}},{"type":"Feature","geometry":{"type":"Point","coordinates":[3.3328096713257898,50.476123456942]},"properties":{"name":"Sam\u00e9on","contributions":6,"per_cent":0.353,"insee":"59551"}},{"type":"Feature","geometry":{"type":"Point","coordinates":[7.421841395017509,48.0430491373597]},"properties":{"name":"Sundhoffen","contributions":4,"per_cent":0.207,"insee":"68331"}},{"type":"Feature","geometry":{"type":"Point","coordinates":[7.739051149093982,48.81729356799914]},"properties":{"name":"Schweighouse-sur-Moder","contributions":3,"per_cent":0.061,"insee":"67458"}},{"type":"Feature","geometry":{"type":"Point","coordinates":[-2.0118102473749655,47.158681264028154]},"properties":{"name":"Chauv\u00e9","contributions":5,"per_cent":0.173,"insee":"44038"}},{"type":"Feature","geometry":{"type":"Point","coordinates":[-0.4346312328889911,49.09120504826668]},"properties":{"name":"Amay\u00e9-sur-Orne","contributions":3,"per_cent":0.297,"insee":"14006"}},{"type":"Feature","geometry":{"type":"Point","coordinates":[3.596525632732261,46.71814490275859]},"properties":{"name":"Gannay-sur-Loire","contributions":1,"per_cent":0.243,"insee":"03119"}},{"type":"Feature","geometry":{"type":"Point","coordinates":[-0.7051522168424333,49.277826763140396]},"properties":{"name":"Bayeux","contributions":254,"per_cent":1.951,"insee":"14047"}},{"type":"Feature","geometry":{"type":"Point","coordinates":[6.425694253722118,46.23174358851379]},"properties":{"name":"Burdignin","contributions":1,"per_cent":0.154,"insee":"74050"}},{"type":"Feature","geometry":{"type":"Point","coordinates":[5.008888018815249,44.69930738303561]},"properties":{"name":"Divajeu","contributions":1,"per_cent":0.152,"insee":"26115"}},{"type":"Feature","geometry":{"type":"Point","coordinates":[0.9867488560268803,49.25472753455902]},"properties":{"name":"La Saussaye","contributions":2,"per_cent":0.106,"insee":"27616"}},{"type":"Feature","geometry":{"type":"Point","coordinates":[6.412733794651761,43.166030285751425]},"properties":{"name":"Le Lavandou","contributions":8,"per_cent":0.134,"insee":"83070"}},{"type":"Feature","geometry":{"type":"Point","coordinates":[2.608610455199393,49.304779053310085]},"properties":{"name":"Pont-Sainte-Maxence","contributions":106,"per_cent":0.841,"insee":"60509"}},{"type":"Feature","geometry":{"type":"Point","coordinates":[2.2871682054986446,50.9513481415716]},"properties":{"name":"Brouckerque","contributions":1,"per_cent":0.071,"insee":"59110"}},{"type":"Feature","geometry":{"type":"Point","coordinates":[-0.39933674544602393,49.08233605012936]},"properties":{"name":"Laize-Clinchamps","contributions":1,"per_cent":0.048,"insee":"14349"}},{"type":"Feature","geometry":{"type":"Point","coordinates":[2.0523068446288413,47.179281244684645]},"properties":{"name":"M\u00e9reau","contributions":2,"per_cent":0.077,"insee":"18148"}},{"type":"Feature","geometry":{"type":"Point","coordinates":[-0.3931399710157611,43.3043107515916]},"properties":{"name":"Bill\u00e8re","contributions":94,"per_cent":0.744,"insee":"64129"}},{"type":"Feature","geometry":{"type":"Point","coordinates":[-0.7097173746056652,49.30753206933248]},"properties":{"name":"Vaux-sur-Aure","contributions":2,"per_cent":0.623,"insee":"14732"}},{"type":"Feature","geometry":{"type":"Point","coordinates":[4.707497121842195,44.657727176968386]},"properties":{"name":"Saint-Vincent-de-Barr\u00e8s","contributions":1,"per_cent":0.12,"insee":"07302"}},{"type":"Feature","geometry":{"type":"Point","coordinates":[2.3691233455197533,50.99617866347697]},"properties":{"name":"Cappelle-la-Grande","contributions":8,"per_cent":0.101,"insee":"59131"}},{"type":"Feature","geometry":{"type":"Point","coordinates":[-0.04449944597249345,47.39085339586591]},"properties":{"name":"Saint-Philbert-du-Peuple","contributions":1,"per_cent":0.076,"insee":"49311"}},{"type":"Feature","geometry":{"type":"Point","coordinates":[-0.4439851743659874,48.691606047505296]},"properties":{"name":"Bellou-en-Houlme","contributions":2,"per_cent":0.182,"insee":"61040"}},{"type":"Feature","geometry":{"type":"Point","coordinates":[4.921814294471762,48.579937106935304]},"properties":{"name":"Humb\u00e9court","contributions":1,"per_cent":0.131,"insee":"52244"}},{"type":"Feature","geometry":{"type":"Point","coordinates":[5.167042652205091,44.974477521046566]},"properties":{"name":"Rochefort-Samson","contributions":1,"per_cent":0.099,"insee":"26273"}},{"type":"Feature","geometry":{"type":"Point","coordinates":[3.7027249227849084,43.54028683417688]},"properties":{"name":"Cournonsec","contributions":21,"per_cent":0.612,"insee":"34087"}},{"type":"Feature","geometry":{"type":"Point","coordinates":[55.304502409471475,-20.944128384297375]},"properties":{"name":"Le Port","contributions":56,"per_cent":0.167,"insee":"97407"}},{"type":"Feature","geometry":{"type":"Point","coordinates":[165.46173389414278,-21.53436700962297]},"properties":{"name":"Bourail","contributions":1,"per_cent":0,"insee":"98803"}},{"type":"Feature","geometry":{"type":"Point","coordinates":[3.0470468603031367,50.69595519261074]},"properties":{"name":"Wambrechies","contributions":74,"per_cent":0.682,"insee":"59636"}},{"type":"Feature","geometry":{"type":"Point","coordinates":[5.738456857237885,48.41353921162907]},"properties":{"name":"Soulosse-sous-Saint-\u00c9lophe","contributions":2,"per_cent":0.308,"insee":"88460"}},{"type":"Feature","geometry":{"type":"Point","coordinates":[0.7221581325881798,44.82543881967215]},"properties":{"name":"Couze-et-Saint-Front","contributions":1,"per_cent":0.139,"insee":"24143"}},{"type":"Feature","geometry":{"type":"Point","coordinates":[7.515639703772147,48.673674108247496]},"properties":{"name":"Willgottheim","contributions":1,"per_cent":0.091,"insee":"67532"}},{"type":"Feature","geometry":{"type":"Point","coordinates":[7.41067485629905,48.489996165295764]},"properties":{"name":"Rosheim","contributions":18,"per_cent":0.345,"insee":"67411"}},{"type":"Feature","geometry":{"type":"Point","coordinates":[2.5646071211852846,48.83624778401029]},"properties":{"name":"Noisy-le-Grand","contributions":177,"per_cent":0.26,"insee":"93051"}},{"type":"Feature","geometry":{"type":"Point","coordinates":[-4.209345829462674,48.01111659605107]},"properties":{"name":"Plon\u00e9is","contributions":6,"per_cent":0.244,"insee":"29173"}},{"type":"Feature","geometry":{"type":"Point","coordinates":[6.854544307768361,47.48127732815202]},"properties":{"name":"Audincourt","contributions":63,"per_cent":0.472,"insee":"25031"}},{"type":"Feature","geometry":{"type":"Point","coordinates":[-1.3668045502333714,46.19897812474495]},"properties":{"name":"Saint-Martin-de-R\u00e9","contributions":4,"per_cent":0.181,"insee":"17369"}},{"type":"Feature","geometry":{"type":"Point","coordinates":[2.0854129823785907,44.48109942347126]},"properties":{"name":"Salles-Courbati\u00e8s","contributions":1,"per_cent":0.239,"insee":"12252"}},{"type":"Feature","geometry":{"type":"Point","coordinates":[5.2035673592297815,45.90649034373123]},"properties":{"name":"Meximieux","contributions":17,"per_cent":0.217,"insee":"01244"}},{"type":"Feature","geometry":{"type":"Point","coordinates":[-0.45041718769874034,49.2218068701223]},"properties":{"name":"Rosel","contributions":1,"per_cent":0.186,"insee":"14542"}},{"type":"Feature","geometry":{"type":"Point","coordinates":[2.71317482365797,48.851635925350934]},"properties":{"name":"Guermantes","contributions":2,"per_cent":0.174,"insee":"77221"}},{"type":"Feature","geometry":{"type":"Point","coordinates":[1.2857064034276302,43.5575231135317]},"properties":{"name":"Plaisance-du-Touch","contributions":108,"per_cent":0.572,"insee":"31424"}},{"type":"Feature","geometry":{"type":"Point","coordinates":[5.6361204305561206,43.22377448725285]},"properties":{"name":"Ceyreste","contributions":2,"per_cent":0.043,"insee":"13023"}},{"type":"Feature","geometry":{"type":"Point","coordinates":[6.623731901574516,45.84021927396814]},"properties":{"name":"Meg\u00e8ve","contributions":2,"per_cent":0.066,"insee":"74173"}},{"type":"Feature","geometry":{"type":"Point","coordinates":[0.9687936153890885,47.17237060242846]},"properties":{"name":"Chambourg-sur-Indre","contributions":1,"per_cent":0.08,"insee":"37049"}},{"type":"Feature","geometry":{"type":"Point","coordinates":[-3.997088110381818,48.48167822091695]},"properties":{"name":"Guimiliau","contributions":1,"per_cent":0.099,"insee":"29074"}},{"type":"Feature","geometry":{"type":"Point","coordinates":[-0.08298814343751214,47.267489900025154]},"properties":{"name":"Saumur","contributions":224,"per_cent":0.842,"insee":"49328"}},{"type":"Feature","geometry":{"type":"Point","coordinates":[0.43152089240928754,48.947340808439534]},"properties":{"name":"La Goulafri\u00e8re","contributions":1,"per_cent":0.602,"insee":"27289"}},{"type":"Feature","geometry":{"type":"Point","coordinates":[5.730435809741415,45.256859463753464]},"properties":{"name":"Quaix-en-Chartreuse","contributions":4,"per_cent":0.451,"insee":"38328"}},{"type":"Feature","geometry":{"type":"Point","coordinates":[-0.30435976460949155,49.22856756085872]},"properties":{"name":"Blainville-sur-Orne","contributions":50,"per_cent":0.841,"insee":"14076"}},{"type":"Feature","geometry":{"type":"Point","coordinates":[-0.07698799431245278,43.10759836651587]},"properties":{"name":"Lourdes","contributions":20,"per_cent":0.151,"insee":"65286"}},{"type":"Feature","geometry":{"type":"Point","coordinates":[-1.8140728026426676,49.652352642558704]},"properties":{"name":"La Hague","contributions":59,"per_cent":0.518,"insee":"50041"}},{"type":"Feature","geometry":{"type":"Point","coordinates":[6.99449333788886,47.625817561754786]},"properties":{"name":"Cuneli\u00e8res","contributions":1,"per_cent":0.287,"insee":"90031"}},{"type":"Feature","geometry":{"type":"Point","coordinates":[6.918140508798582,43.53822287389175]},"properties":{"name":"Mandelieu-la-Napoule","contributions":63,"per_cent":0.289,"insee":"06079"}},{"type":"Feature","geometry":{"type":"Point","coordinates":[-0.5202309392363933,45.94272841549425]},"properties":{"name":"Saint-Jean-d'Ang\u00e9ly","contributions":6,"per_cent":0.087,"insee":"17347"}},{"type":"Feature","geometry":{"type":"Point","coordinates":[-0.9022829769285812,49.36693883253998]},"properties":{"name":"Vierville-sur-Mer","contributions":1,"per_cent":0.439,"insee":"14745"}},{"type":"Feature","geometry":{"type":"Point","coordinates":[4.63922147759537,49.79908193656449]},"properties":{"name":"Tournes","contributions":2,"per_cent":0.187,"insee":"08457"}},{"type":"Feature","geometry":{"type":"Point","coordinates":[-1.6610765672638323,43.37458271870695]},"properties":{"name":"Ciboure","contributions":92,"per_cent":1.479,"insee":"64189"}},{"type":"Feature","geometry":{"type":"Point","coordinates":[7.46210034912481,48.24807475352646]},"properties":{"name":"S\u00e9lestat","contributions":87,"per_cent":0.449,"insee":"67462"}},{"type":"Feature","geometry":{"type":"Point","coordinates":[3.4823768393435643,47.87602541990758]},"properties":{"name":"Branches","contributions":1,"per_cent":0.224,"insee":"89053"}},{"type":"Feature","geometry":{"type":"Point","coordinates":[1.6061256220814852,50.72677797681936]},"properties":{"name":"Boulogne-sur-Mer","contributions":105,"per_cent":0.258,"insee":"62160"}},{"type":"Feature","geometry":{"type":"Point","coordinates":[-1.0710829324886708,46.121296677143356]},"properties":{"name":"La Jarne","contributions":9,"per_cent":0.358,"insee":"17193"}},{"type":"Feature","geometry":{"type":"Point","coordinates":[4.67254601883429,45.698993122893384]},"properties":{"name":"Messimy","contributions":4,"per_cent":0.118,"insee":"69131"}},{"type":"Feature","geometry":{"type":"Point","coordinates":[1.2372316109611678,43.45708194209102]},"properties":{"name":"Labastidette","contributions":1,"per_cent":0.036,"insee":"31253"}},{"type":"Feature","geometry":{"type":"Point","coordinates":[7.024464398596588,47.997325101173665]},"properties":{"name":"Metzeral","contributions":1,"per_cent":0.095,"insee":"68204"}},{"type":"Feature","geometry":{"type":"Point","coordinates":[6.522849681248236,46.05221312676531]},"properties":{"name":"Marnaz","contributions":3,"per_cent":0.054,"insee":"74169"}},{"type":"Feature","geometry":{"type":"Point","coordinates":[-1.3307822936527216,47.43797757883314]},"properties":{"name":"Mouzeil","contributions":1,"per_cent":0.052,"insee":"44107"}},{"type":"Feature","geometry":{"type":"Point","coordinates":[6.549290419325115,48.13250952358777]},"properties":{"name":"Archettes","contributions":2,"per_cent":0.185,"insee":"88012"}},{"type":"Feature","geometry":{"type":"Point","coordinates":[0.3841673778782545,49.023125328298335]},"properties":{"name":"Orbec","contributions":8,"per_cent":0.402,"insee":"14478"}},{"type":"Feature","geometry":{"type":"Point","coordinates":[-3.1875941545476736,48.67218303805408]},"properties":{"name":"Plou\u00ebc-du-Trieux","contributions":1,"per_cent":0.088,"insee":"22212"}},{"type":"Feature","geometry":{"type":"Point","coordinates":[0.01735352140667785,42.83217579723778]},"properties":{"name":"Luz-Saint-Sauveur","contributions":1,"per_cent":0.105,"insee":"65295"}},{"type":"Feature","geometry":{"type":"Point","coordinates":[1.610573154344734,50.321930211447736]},"properties":{"name":"Quend","contributions":1,"per_cent":0.074,"insee":"80649"}},{"type":"Feature","geometry":{"type":"Point","coordinates":[6.092742772373377,48.53671373182888]},"properties":{"name":"Houdelmont","contributions":1,"per_cent":0.403,"insee":"54264"}},{"type":"Feature","geometry":{"type":"Point","coordinates":[1.2547831487055046,49.95514085385225]},"properties":{"name":"Petit-Caux","contributions":3,"per_cent":0.031,"insee":"76618"}},{"type":"Feature","geometry":{"type":"Point","coordinates":[4.64968221037634,45.21932734489191]},"properties":{"name":"Roiffieux","contributions":3,"per_cent":0.109,"insee":"07197"}},{"type":"Feature","geometry":{"type":"Point","coordinates":[1.121516151416364,49.84749077023178]},"properties":{"name":"Aubermesnil-Beaumais","contributions":1,"per_cent":0.206,"insee":"76030"}},{"type":"Feature","geometry":{"type":"Point","coordinates":[1.0002402150112801,47.391659896370996]},"properties":{"name":"Amboise","contributions":101,"per_cent":0.796,"insee":"37003"}},{"type":"Feature","geometry":{"type":"Point","coordinates":[1.147860106860104,42.81782896770494]},"properties":{"name":"Seix","contributions":5,"per_cent":0.708,"insee":"09285"}},{"type":"Feature","geometry":{"type":"Point","coordinates":[0.25558103116728326,49.518019263072325]},"properties":{"name":"Gainneville","contributions":4,"per_cent":0.157,"insee":"76296"}},{"type":"Feature","geometry":{"type":"Point","coordinates":[2.5331333371767593,48.76566684944531]},"properties":{"name":"Sucy-en-Brie","contributions":102,"per_cent":0.378,"insee":"94071"}},{"type":"Feature","geometry":{"type":"Point","coordinates":[2.143781373508794,50.99821632188831]},"properties":{"name":"Gravelines","contributions":13,"per_cent":0.117,"insee":"59273"}},{"type":"Feature","geometry":{"type":"Point","coordinates":[3.9007109618189655,45.06101339538306]},"properties":{"name":"Chadrac","contributions":6,"per_cent":0.241,"insee":"43046"}},{"type":"Feature","geometry":{"type":"Point","coordinates":[0.07008648005724578,43.11828371258136]},"properties":{"name":"Loucrup","contributions":1,"per_cent":0.427,"insee":"65281"}},{"type":"Feature","geometry":{"type":"Point","coordinates":[2.290671943471984,51.01681972783721]},"properties":{"name":"Grande-Synthe","contributions":52,"per_cent":0.228,"insee":"59271"}},{"type":"Feature","geometry":{"type":"Point","coordinates":[1.3989094256458263,48.715647845885364]},"properties":{"name":"Luray","contributions":1,"per_cent":0.065,"insee":"28223"}},{"type":"Feature","geometry":{"type":"Point","coordinates":[4.948952689457232,45.66511591066385]},"properties":{"name":"Mions","contributions":16,"per_cent":0.117,"insee":"69283"}},{"type":"Feature","geometry":{"type":"Point","coordinates":[-2.8178993052527708,48.447523115510805]},"properties":{"name":"Saint-Julien","contributions":3,"per_cent":0.147,"insee":"22307"}},{"type":"Feature","geometry":{"type":"Point","coordinates":[-4.521861946198497,48.43136175173346]},"properties":{"name":"Bohars","contributions":63,"per_cent":1.792,"insee":"29011"}},{"type":"Feature","geometry":{"type":"Point","coordinates":[1.9342054667212878,48.572717556716015]},"properties":{"name":"Saint-Arnoult-en-Yvelines","contributions":9,"per_cent":0.152,"insee":"78537"}},{"type":"Feature","geometry":{"type":"Point","coordinates":[2.6340380475352485,48.8338634686056]},"properties":{"name":"Lognes","contributions":60,"per_cent":0.421,"insee":"77258"}},{"type":"Feature","geometry":{"type":"Point","coordinates":[-3.5665793347140253,48.654793701667685]},"properties":{"name":"Tr\u00e9duder","contributions":1,"per_cent":0.513,"insee":"22350"}},{"type":"Feature","geometry":{"type":"Point","coordinates":[-0.6346191585528613,47.47446028189646]},"properties":{"name":"Beaucouz\u00e9","contributions":95,"per_cent":1.793,"insee":"49020"}},{"type":"Feature","geometry":{"type":"Point","coordinates":[3.3091026281608795,45.402444773944616]},"properties":{"name":"Sainte-Florine","contributions":1,"per_cent":0.031,"insee":"43185"}},{"type":"Feature","geometry":{"type":"Point","coordinates":[4.7672140095023074,43.85405082104932]},"properties":{"name":"Graveson","contributions":3,"per_cent":0.062,"insee":"13045"}},{"type":"Feature","geometry":{"type":"Point","coordinates":[4.804865873559383,44.60103384313897]},"properties":{"name":"Saint-Marcel-l\u00e8s-Sauzet","contributions":2,"per_cent":0.155,"insee":"26312"}},{"type":"Feature","geometry":{"type":"Point","coordinates":[6.205504523792473,46.681774929127755]},"properties":{"name":"Mouthe","contributions":2,"per_cent":0.187,"insee":"25413"}},{"type":"Feature","geometry":{"type":"Point","coordinates":[2.117026480537344,50.70471202882867]},"properties":{"name":"Lumbres","contributions":1,"per_cent":0.028,"insee":"62534"}},{"type":"Feature","geometry":{"type":"Point","coordinates":[0.16539908885811702,45.679391837866355]},"properties":{"name":"Gond-Pontouvre","contributions":13,"per_cent":0.215,"insee":"16154"}},{"type":"Feature","geometry":{"type":"Point","coordinates":[2.1200101823505273,49.20697851625432]},"properties":{"name":"Amblainville","contributions":5,"per_cent":0.286,"insee":"60010"}},{"type":"Feature","geometry":{"type":"Point","coordinates":[-2.847811034822832,47.76081500055611]},"properties":{"name":"Grand-Champ","contributions":10,"per_cent":0.183,"insee":"56067"}},{"type":"Feature","geometry":{"type":"Point","coordinates":[2.6757706091470883,46.29944727339455]},"properties":{"name":"N\u00e9ris-les-Bains","contributions":1,"per_cent":0.039,"insee":"03195"}},{"type":"Feature","geometry":{"type":"Point","coordinates":[6.658365384269025,47.49308770384997]},"properties":{"name":"Montenois","contributions":1,"per_cent":0.067,"insee":"25394"}},{"type":"Feature","geometry":{"type":"Point","coordinates":[-0.4308593374347384,49.20566414195272]},"properties":{"name":"Authie","contributions":8,"per_cent":0.498,"insee":"14030"}},{"type":"Feature","geometry":{"type":"Point","coordinates":[3.708186197245992,50.26534976348403]},"properties":{"name":"Gommegnies","contributions":2,"per_cent":0.087,"insee":"59265"}},{"type":"Feature","geometry":{"type":"Point","coordinates":[0.5447454944389912,46.28072566889252]},"properties":{"name":"Usson-du-Poitou","contributions":1,"per_cent":0.08,"insee":"86276"}},{"type":"Feature","geometry":{"type":"Point","coordinates":[2.1803461391546604,43.88128558071644]},"properties":{"name":"Puygouzon","contributions":2,"per_cent":0.057,"insee":"81218"}},{"type":"Feature","geometry":{"type":"Point","coordinates":[4.174711683114542,46.166546933745835]},"properties":{"name":"Charlieu","contributions":6,"per_cent":0.163,"insee":"42052"}},{"type":"Feature","geometry":{"type":"Point","coordinates":[2.655506944839557,49.05093910649158]},"properties":{"name":"Longperrier","contributions":2,"per_cent":0.085,"insee":"77259"}},{"type":"Feature","geometry":{"type":"Point","coordinates":[2.2566588193437367,48.9879777308711]},"properties":{"name":"Ermont","contributions":99,"per_cent":0.34,"insee":"95219"}},{"type":"Feature","geometry":{"type":"Point","coordinates":[2.4786734628910683,50.877920629881494]},"properties":{"name":"Wormhout","contributions":6,"per_cent":0.106,"insee":"59663"}},{"type":"Feature","geometry":{"type":"Point","coordinates":[-0.44037688607328174,44.81937220942573]},"properties":{"name":"Fargues-Saint-Hilaire","contributions":12,"per_cent":0.399,"insee":"33165"}},{"type":"Feature","geometry":{"type":"Point","coordinates":[-0.753406085332361,46.10463341981745]},"properties":{"name":"Surg\u00e8res","contributions":6,"per_cent":0.088,"insee":"17434"}},{"type":"Feature","geometry":{"type":"Point","coordinates":[2.366056226787936,43.249605454218525]},"properties":{"name":"Villemoustaussou","contributions":1,"per_cent":0.022,"insee":"11429"}},{"type":"Feature","geometry":{"type":"Point","coordinates":[1.3361754727598165,49.13291342031381]},"properties":{"name":"Saint-Aubin-sur-Gaillon","contributions":2,"per_cent":0.098,"insee":"27517"}},{"type":"Feature","geometry":{"type":"Point","coordinates":[2.6831654273218115,50.49284762953946]},"properties":{"name":"Labourse","contributions":2,"per_cent":0.069,"insee":"62480"}},{"type":"Feature","geometry":{"type":"Point","coordinates":[2.6159621846243954,48.74917043545442]},"properties":{"name":"L\u00e9signy","contributions":11,"per_cent":0.154,"insee":"77249"}},{"type":"Feature","geometry":{"type":"Point","coordinates":[4.037666619386997,43.6973706716329]},"properties":{"name":"Saint-Geni\u00e8s-des-Mourgues","contributions":44,"per_cent":2.237,"insee":"34256"}},{"type":"Feature","geometry":{"type":"Point","coordinates":[3.7442469567116694,45.805646320239916]},"properties":{"name":"Noir\u00e9table","contributions":1,"per_cent":0.063,"insee":"42159"}},{"type":"Feature","geometry":{"type":"Point","coordinates":[-1.2988651364006607,47.207726326368444]},"properties":{"name":"Le Landreau","contributions":1,"per_cent":0.033,"insee":"44079"}},{"type":"Feature","geometry":{"type":"Point","coordinates":[-0.08169272517655139,48.9236326572467]},"properties":{"name":"Morteaux-Coulib\u0153uf","contributions":1,"per_cent":0.157,"insee":"14452"}},{"type":"Feature","geometry":{"type":"Point","coordinates":[-0.5087969606577387,45.551593418149984]},"properties":{"name":"Avy","contributions":1,"per_cent":0.21,"insee":"17027"}},{"type":"Feature","geometry":{"type":"Point","coordinates":[2.736054857162895,48.01870700022975]},"properties":{"name":"Ch\u00e2lette-sur-Loing","contributions":15,"per_cent":0.117,"insee":"45068"}},{"type":"Feature","geometry":{"type":"Point","coordinates":[2.231717711725294,44.018642536806425]},"properties":{"name":"Valderi\u00e8s","contributions":1,"per_cent":0.118,"insee":"81306"}},{"type":"Feature","geometry":{"type":"Point","coordinates":[2.22174967957088,50.97260876051781]},"properties":{"name":"Craywick","contributions":2,"per_cent":0.296,"insee":"59159"}},{"type":"Feature","geometry":{"type":"Point","coordinates":[-1.3636797249440569,43.81186962367124]},"properties":{"name":"Messanges","contributions":3,"per_cent":0.309,"insee":"40181"}},{"type":"Feature","geometry":{"type":"Point","coordinates":[5.348602441265642,45.3460224797266]},"properties":{"name":"Saint-\u00c9tienne-de-Saint-Geoirs","contributions":1,"per_cent":0.031,"insee":"38384"}},{"type":"Feature","geometry":{"type":"Point","coordinates":[4.322464842063108,43.69598870501615]},"properties":{"name":"Beauvoisin","contributions":2,"per_cent":0.041,"insee":"30033"}},{"type":"Feature","geometry":{"type":"Point","coordinates":[5.631434994556436,45.06545992500198]},"properties":{"name":"Saint-Paul-de-Varces","contributions":11,"per_cent":0.495,"insee":"38436"}},{"type":"Feature","geometry":{"type":"Point","coordinates":[3.925905368388548,43.533544565868894]},"properties":{"name":"Palavas-les-Flots","contributions":66,"per_cent":1.118,"insee":"34192"}},{"type":"Feature","geometry":{"type":"Point","coordinates":[-0.9823639641080211,46.951033674758975]},"properties":{"name":"Chanverrie","contributions":4,"per_cent":0.073,"insee":"85302"}},{"type":"Feature","geometry":{"type":"Point","coordinates":[5.8284323828189155,45.251496948049606]},"properties":{"name":"Saint-Ismier","contributions":38,"per_cent":0.541,"insee":"38397"}},{"type":"Feature","geometry":{"type":"Point","coordinates":[2.70454463199534,47.98317449609289]},"properties":{"name":"Villemandeur","contributions":10,"per_cent":0.148,"insee":"45338"}},{"type":"Feature","geometry":{"type":"Point","coordinates":[1.3543683863771214,43.50722119698707]},"properties":{"name":"Roques","contributions":55,"per_cent":1.182,"insee":"31458"}},{"type":"Feature","geometry":{"type":"Point","coordinates":[0.17216378771661298,44.5053670025211]},"properties":{"name":"Marmande","contributions":62,"per_cent":0.354,"insee":"47157"}},{"type":"Feature","geometry":{"type":"Point","coordinates":[-60.89768850691261,14.50930734208656]},"properties":{"name":"Rivi\u00e8re-Pilote","contributions":3,"per_cent":0.025,"insee":"97220"}},{"type":"Feature","geometry":{"type":"Point","coordinates":[4.445603534482066,46.765921270596536]},"properties":{"name":"Torcy","contributions":2,"per_cent":0.069,"insee":"71540"}},{"type":"Feature","geometry":{"type":"Point","coordinates":[-61.02601074847951,14.712141057119632]},"properties":{"name":"Gros-Morne","contributions":2,"per_cent":0.021,"insee":"97212"}},{"type":"Feature","geometry":{"type":"Point","coordinates":[-1.5558292133172331,47.39220850002956]},"properties":{"name":"Casson","contributions":2,"per_cent":0.086,"insee":"44027"}},{"type":"Feature","geometry":{"type":"Point","coordinates":[-0.8156985118957121,43.753979000406794]},"properties":{"name":"Poyanne","contributions":1,"per_cent":0.146,"insee":"40235"}},{"type":"Feature","geometry":{"type":"Point","coordinates":[6.003573743785567,45.49160047495773]},"properties":{"name":"Porte-de-Savoie","contributions":11,"per_cent":0.296,"insee":"73151"}},{"type":"Feature","geometry":{"type":"Point","coordinates":[0.28216315923696456,45.47826011689638]},"properties":{"name":"Villebois-Lavalette","contributions":1,"per_cent":0.137,"insee":"16408"}},{"type":"Feature","geometry":{"type":"Point","coordinates":[4.449320413553913,43.8613102472587]},"properties":{"name":"Marguerittes","contributions":8,"per_cent":0.093,"insee":"30156"}},{"type":"Feature","geometry":{"type":"Point","coordinates":[9.048613299186716,41.50486051003192]},"properties":{"name":"Pianottoli-Caldarello","contributions":2,"per_cent":0.221,"insee":"2A215"}},{"type":"Feature","geometry":{"type":"Point","coordinates":[7.161710992330671,47.64578329390451]},"properties":{"name":"Hagenbach","contributions":1,"per_cent":0.137,"insee":"68119"}},{"type":"Feature","geometry":{"type":"Point","coordinates":[5.028204235478518,43.96142010258878]},"properties":{"name":"Velleron","contributions":78,"per_cent":2.629,"insee":"84142"}},{"type":"Feature","geometry":{"type":"Point","coordinates":[3.2294613723268504,50.6307146431604]},"properties":{"name":"Willems","contributions":88,"per_cent":2.934,"insee":"59660"}},{"type":"Feature","geometry":{"type":"Point","coordinates":[-0.3500869947427484,43.36535043351509]},"properties":{"name":"Montardon","contributions":3,"per_cent":0.13,"insee":"64399"}},{"type":"Feature","geometry":{"type":"Point","coordinates":[1.2898225264759622,48.776085924005514]},"properties":{"name":"Mesnil-sur-l'Estr\u00e9e","contributions":2,"per_cent":0.223,"insee":"27406"}},{"type":"Feature","geometry":{"type":"Point","coordinates":[2.1344688603954283,48.846861120591356]},"properties":{"name":"La Celle-Saint-Cloud","contributions":71,"per_cent":0.341,"insee":"78126"}},{"type":"Feature","geometry":{"type":"Point","coordinates":[4.689741194173725,45.74802008479118]},"properties":{"name":"Gr\u00e9zieu-la-Varenne","contributions":9,"per_cent":0.154,"insee":"69094"}},{"type":"Feature","geometry":{"type":"Point","coordinates":[6.4493456048058,43.401352448455114]},"properties":{"name":"Vidauban","contributions":42,"per_cent":0.345,"insee":"83148"}},{"type":"Feature","geometry":{"type":"Point","coordinates":[7.288470518880135,43.74520031741645]},"properties":{"name":"Saint-Andr\u00e9-de-la-Roche","contributions":1,"per_cent":0.018,"insee":"06114"}},{"type":"Feature","geometry":{"type":"Point","coordinates":[4.55785771696161,45.657861047908305]},"properties":{"name":"Saint-Martin-en-Haut","contributions":4,"per_cent":0.103,"insee":"69227"}},{"type":"Feature","geometry":{"type":"Point","coordinates":[5.12425180348623,43.78864327515971]},"properties":{"name":"Cheval-Blanc","contributions":87,"per_cent":2.026,"insee":"84038"}},{"type":"Feature","geometry":{"type":"Point","coordinates":[3.3636223228175868,48.536421310593504]},"properties":{"name":"Sourdun","contributions":1,"per_cent":0.067,"insee":"77459"}},{"type":"Feature","geometry":{"type":"Point","coordinates":[5.9378713419131195,46.77921261949159]},"properties":{"name":"Saint-Germain-en-Montagne","contributions":1,"per_cent":0.25,"insee":"39481"}},{"type":"Feature","geometry":{"type":"Point","coordinates":[0.11092846840398608,43.12305853090055]},"properties":{"name":"Montgaillard","contributions":2,"per_cent":0.236,"insee":"65320"}},{"type":"Feature","geometry":{"type":"Point","coordinates":[5.629565903672725,43.25112895317742]},"properties":{"name":"Roquefort-la-B\u00e9doule","contributions":8,"per_cent":0.136,"insee":"13085"}},{"type":"Feature","geometry":{"type":"Point","coordinates":[6.192707312211352,49.314872507012055]},"properties":{"name":"Bertrange","contributions":4,"per_cent":0.147,"insee":"57067"}},{"type":"Feature","geometry":{"type":"Point","coordinates":[3.9736805954629597,50.3139930344904]},"properties":{"name":"Mairieux","contributions":1,"per_cent":0.139,"insee":"59370"}},{"type":"Feature","geometry":{"type":"Point","coordinates":[-4.238807872864608,48.32425641100742]},"properties":{"name":"H\u00f4pital-Camfrout","contributions":81,"per_cent":3.618,"insee":"29080"}},{"type":"Feature","geometry":{"type":"Point","coordinates":[-0.5904584677935271,45.767648453364856]},"properties":{"name":"Fontcouverte","contributions":3,"per_cent":0.129,"insee":"17164"}},{"type":"Feature","geometry":{"type":"Point","coordinates":[4.04896838516478,45.07800981328377]},"properties":{"name":"Saint-Hostien","contributions":1,"per_cent":0.136,"insee":"43194"}},{"type":"Feature","geometry":{"type":"Point","coordinates":[2.3675824016966116,49.25217372551331]},"properties":{"name":"Maysel","contributions":1,"per_cent":0.418,"insee":"60391"}},{"type":"Feature","geometry":{"type":"Point","coordinates":[6.021177685288351,43.60050032354344]},"properties":{"name":"Tavernes","contributions":2,"per_cent":0.143,"insee":"83135"}},{"type":"Feature","geometry":{"type":"Point","coordinates":[1.9130705908085812,49.00653051580505]},"properties":{"name":"Meulan-en-Yvelines","contributions":64,"per_cent":0.711,"insee":"78401"}},{"type":"Feature","geometry":{"type":"Point","coordinates":[1.3383205202656583,48.69974558691673]},"properties":{"name":"Garnay","contributions":2,"per_cent":0.223,"insee":"28171"}},{"type":"Feature","geometry":{"type":"Point","coordinates":[3.115399275946476,45.78591166640718]},"properties":{"name":"Clermont-Ferrand","contributions":1017,"per_cent":0.693,"insee":"63113"}},{"type":"Feature","geometry":{"type":"Point","coordinates":[-0.9139786489227785,44.469265837096145]},"properties":{"name":"Lugos","contributions":3,"per_cent":0.316,"insee":"33260"}},{"type":"Feature","geometry":{"type":"Point","coordinates":[9.29976650640594,42.12667330714221]},"properties":{"name":"Pietroso","contributions":1,"per_cent":0.313,"insee":"2B229"}},{"type":"Feature","geometry":{"type":"Point","coordinates":[4.426768468249237,46.8066886135369]},"properties":{"name":"Le Creusot","contributions":66,"per_cent":0.307,"insee":"71153"}},{"type":"Feature","geometry":{"type":"Point","coordinates":[7.4154881530257795,47.81844325737123]},"properties":{"name":"Battenheim","contributions":1,"per_cent":0.063,"insee":"68022"}},{"type":"Feature","geometry":{"type":"Point","coordinates":[9.422912188592793,42.04374214673914]},"properties":{"name":"Ghisonaccia","contributions":7,"per_cent":0.166,"insee":"2B123"}},{"type":"Feature","geometry":{"type":"Point","coordinates":[3.3440207429943714,45.86088115356528]},"properties":{"name":"Culhat","contributions":1,"per_cent":0.089,"insee":"63131"}},{"type":"Feature","geometry":{"type":"Point","coordinates":[6.249262255712281,45.99578217195813]},"properties":{"name":"Filli\u00e8re","contributions":117,"per_cent":1.254,"insee":"74282"}},{"type":"Feature","geometry":{"type":"Point","coordinates":[1.55905843822983,43.65260256393133]},"properties":{"name":"Beaupuy","contributions":67,"per_cent":5,"insee":"31053"}},{"type":"Feature","geometry":{"type":"Point","coordinates":[1.3608064202521075,47.56075438170383]},"properties":{"name":"Saint-Gervais-la-For\u00eat","contributions":17,"per_cent":0.534,"insee":"41212"}},{"type":"Feature","geometry":{"type":"Point","coordinates":[5.284094836219371,46.19316621227499]},"properties":{"name":"Saint-Just","contributions":1,"per_cent":0.106,"insee":"01369"}},{"type":"Feature","geometry":{"type":"Point","coordinates":[3.098811990837678,50.31864222521187]},"properties":{"name":"G\u0153ulzin","contributions":1,"per_cent":0.097,"insee":"59263"}},{"type":"Feature","geometry":{"type":"Point","coordinates":[6.10582914573662,49.29830504879074]},"properties":{"name":"Fameck","contributions":2,"per_cent":0.014,"insee":"57206"}},{"type":"Feature","geometry":{"type":"Point","coordinates":[4.319185411787819,45.501406168228336]},"properties":{"name":"La Fouillouse","contributions":10,"per_cent":0.221,"insee":"42097"}},{"type":"Feature","geometry":{"type":"Point","coordinates":[5.971497204407786,46.17687400065519]},"properties":{"name":"Challex","contributions":6,"per_cent":0.395,"insee":"01078"}},{"type":"Feature","geometry":{"type":"Point","coordinates":[-0.35864429962223504,44.64647100406088]},"properties":{"name":"Podensac","contributions":1,"per_cent":0.031,"insee":"33327"}},{"type":"Feature","geometry":{"type":"Point","coordinates":[-1.261196624143072,49.12374423055179]},"properties":{"name":"Marigny-Le-Lozon","contributions":3,"per_cent":0.113,"insee":"50292"}},{"type":"Feature","geometry":{"type":"Point","coordinates":[3.684666875493623,48.86260405594138]},"properties":{"name":"Le Thoult-Trosnay","contributions":1,"per_cent":0.962,"insee":"51570"}},{"type":"Feature","geometry":{"type":"Point","coordinates":[4.048349449520297,50.27653727091018]},"properties":{"name":"Recquignies","contributions":1,"per_cent":0.042,"insee":"59495"}},{"type":"Feature","geometry":{"type":"Point","coordinates":[0.8453406995173595,49.8138676279633]},"properties":{"name":"Fontaine-le-Dun","contributions":1,"per_cent":0.111,"insee":"76272"}},{"type":"Feature","geometry":{"type":"Point","coordinates":[3.5936965574737547,43.5005661663594]},"properties":{"name":"Villeveyrac","contributions":57,"per_cent":1.489,"insee":"34341"}},{"type":"Feature","geometry":{"type":"Point","coordinates":[4.784775499421078,45.32160534963845]},"properties":{"name":"Sablons","contributions":2,"per_cent":0.087,"insee":"38349"}},{"type":"Feature","geometry":{"type":"Point","coordinates":[-3.1534824715680796,48.56062990788465]},"properties":{"name":"Guingamp","contributions":52,"per_cent":0.741,"insee":"22070"}},{"type":"Feature","geometry":{"type":"Point","coordinates":[1.6821867925710223,43.53575175922009]},"properties":{"name":"Aurin","contributions":1,"per_cent":0.3,"insee":"31029"}},{"type":"Feature","geometry":{"type":"Point","coordinates":[6.013203841258351,48.58729668603049]},"properties":{"name":"Viterne","contributions":2,"per_cent":0.272,"insee":"54586"}},{"type":"Feature","geometry":{"type":"Point","coordinates":[3.154843206865061,50.29050411944389]},"properties":{"name":"Bugnicourt","contributions":1,"per_cent":0.096,"insee":"59117"}},{"type":"Feature","geometry":{"type":"Point","coordinates":[4.628952666068497,46.93065057179832]},"properties":{"name":"Change","contributions":1,"per_cent":0.452,"insee":"71085"}},{"type":"Feature","geometry":{"type":"Point","coordinates":[2.3238098373363667,49.42628579083976]},"properties":{"name":"Litz","contributions":1,"per_cent":0.278,"insee":"60366"}},{"type":"Feature","geometry":{"type":"Point","coordinates":[1.1783819051882782,49.32205321140371]},"properties":{"name":"Alizay","contributions":4,"per_cent":0.254,"insee":"27008"}},{"type":"Feature","geometry":{"type":"Point","coordinates":[6.136737396652566,48.87046031434689]},"properties":{"name":"Sainte-Genevi\u00e8ve","contributions":1,"per_cent":0.526,"insee":"54474"}},{"type":"Feature","geometry":{"type":"Point","coordinates":[1.918796726042071,49.02541276658741]},"properties":{"name":"Tessancourt-sur-Aubette","contributions":2,"per_cent":0.192,"insee":"78609"}},{"type":"Feature","geometry":{"type":"Point","coordinates":[0.7753200271466186,48.434495695837505]},"properties":{"name":"R\u00e9malard en Perche","contributions":1,"per_cent":0.052,"insee":"61345"}},{"type":"Feature","geometry":{"type":"Point","coordinates":[5.765774016582878,43.22723331847882]},"properties":{"name":"Le Castellet","contributions":3,"per_cent":0.077,"insee":"83035"}},{"type":"Feature","geometry":{"type":"Point","coordinates":[3.2753566330277275,44.81265848744478]},"properties":{"name":"Saint-Ch\u00e9ly-d'Apcher","contributions":2,"per_cent":0.048,"insee":"48140"}},{"type":"Feature","geometry":{"type":"Point","coordinates":[1.4872904493863794,43.5287327496571]},"properties":{"name":"Auzeville-Tolosane","contributions":54,"per_cent":1.32,"insee":"31035"}},{"type":"Feature","geometry":{"type":"Point","coordinates":[2.933038817584297,42.51161237145982]},"properties":{"name":"Laroque-des-Alb\u00e8res","contributions":3,"per_cent":0.141,"insee":"66093"}},{"type":"Feature","geometry":{"type":"Point","coordinates":[0.47241911368653783,44.56933886637371]},"properties":{"name":"Montignac-de-Lauzun","contributions":1,"per_cent":0.348,"insee":"47188"}},{"type":"Feature","geometry":{"type":"Point","coordinates":[-3.147860565904597,47.83698462467262]},"properties":{"name":"Languidic","contributions":28,"per_cent":0.35,"insee":"56101"}},{"type":"Feature","geometry":{"type":"Point","coordinates":[0.2971394617687143,47.97885967390329]},"properties":{"name":"Chang\u00e9","contributions":46,"per_cent":0.702,"insee":"72058"}},{"type":"Feature","geometry":{"type":"Point","coordinates":[-1.9050636813838955,47.67638945328006]},"properties":{"name":"Mass\u00e9rac","contributions":3,"per_cent":0.434,"insee":"44092"}},{"type":"Feature","geometry":{"type":"Point","coordinates":[6.299575176856994,46.34571758428341]},"properties":{"name":"Messery","contributions":12,"per_cent":0.559,"insee":"74180"}},{"type":"Feature","geometry":{"type":"Point","coordinates":[5.517700522790034,45.42753213956038]},"properties":{"name":"Charavines","contributions":4,"per_cent":0.209,"insee":"38082"}},{"type":"Feature","geometry":{"type":"Point","coordinates":[1.888838744960456,47.854817344903836]},"properties":{"name":"Olivet","contributions":106,"per_cent":0.478,"insee":"45232"}},{"type":"Feature","geometry":{"type":"Point","coordinates":[2.5763628943873584,48.805764128732946]},"properties":{"name":"Le Plessis-Tr\u00e9vise","contributions":89,"per_cent":0.444,"insee":"94059"}},{"type":"Feature","geometry":{"type":"Point","coordinates":[2.8968103807944776,49.236030918511084]},"properties":{"name":"Cr\u00e9py-en-Valois","contributions":50,"per_cent":0.338,"insee":"60176"}},{"type":"Feature","geometry":{"type":"Point","coordinates":[1.1195149401210112,49.05658382509771]},"properties":{"name":"Aviron","contributions":19,"per_cent":1.726,"insee":"27031"}},{"type":"Feature","geometry":{"type":"Point","coordinates":[4.6214449556380774,48.720570739574974]},"properties":{"name":"Marolles","contributions":1,"per_cent":0.113,"insee":"51352"}},{"type":"Feature","geometry":{"type":"Point","coordinates":[-1.5118680852544832,49.03787569751836]},"properties":{"name":"Heugueville-sur-Sienne","contributions":3,"per_cent":0.57,"insee":"50243"}},{"type":"Feature","geometry":{"type":"Point","coordinates":[-1.1832415657436253,48.17790644505197]},"properties":{"name":"Balaz\u00e9","contributions":2,"per_cent":0.09,"insee":"35015"}},{"type":"Feature","geometry":{"type":"Point","coordinates":[0.0629879062303994,48.018718811392624]},"properties":{"name":"Chaufour-Notre-Dame","contributions":1,"per_cent":0.093,"insee":"72073"}},{"type":"Feature","geometry":{"type":"Point","coordinates":[-1.5429534301370682,48.0684683995358]},"properties":{"name":"Domloup","contributions":9,"per_cent":0.25,"insee":"35099"}},{"type":"Feature","geometry":{"type":"Point","coordinates":[-4.074995990878175,48.08963268427166]},"properties":{"name":"Landr\u00e9varzec","contributions":3,"per_cent":0.163,"insee":"29106"}},{"type":"Feature","geometry":{"type":"Point","coordinates":[-0.10241934356756965,47.56627034575358]},"properties":{"name":"Baug\u00e9-en-Anjou","contributions":63,"per_cent":0.534,"insee":"49018"}},{"type":"Feature","geometry":{"type":"Point","coordinates":[6.158985400234883,49.245913799283045]},"properties":{"name":"Hagondange","contributions":4,"per_cent":0.043,"insee":"57283"}},{"type":"Feature","geometry":{"type":"Point","coordinates":[-1.6776636244630752,47.657679164293505]},"properties":{"name":"Derval","contributions":5,"per_cent":0.143,"insee":"44051"}},{"type":"Feature","geometry":{"type":"Point","coordinates":[0.5918591570417627,43.04207928016021]},"properties":{"name":"Labroqu\u00e8re","contributions":1,"per_cent":0.314,"insee":"31255"}},{"type":"Feature","geometry":{"type":"Point","coordinates":[3.020200005249719,43.16503403099352]},"properties":{"name":"Narbonne","contributions":340,"per_cent":0.614,"insee":"11262"}},{"type":"Feature","geometry":{"type":"Point","coordinates":[1.0619287591129256,45.32940336348502]},"properties":{"name":"Excideuil","contributions":1,"per_cent":0.085,"insee":"24164"}},{"type":"Feature","geometry":{"type":"Point","coordinates":[0.6247050321592894,49.398763584560776]},"properties":{"name":"Bourneville-Sainte-Croix","contributions":1,"per_cent":0.076,"insee":"27107"}},{"type":"Feature","geometry":{"type":"Point","coordinates":[-1.3056269547773804,45.93966300552758]},"properties":{"name":"Saint-Pierre-d'Ol\u00e9ron","contributions":13,"per_cent":0.195,"insee":"17385"}},{"type":"Feature","geometry":{"type":"Point","coordinates":[7.325470995087447,47.74899614930196]},"properties":{"name":"Mulhouse","contributions":379,"per_cent":0.348,"insee":"68224"}},{"type":"Feature","geometry":{"type":"Point","coordinates":[3.1741216106992782,50.5046981120737]},"properties":{"name":"Cappelle-en-P\u00e9v\u00e8le","contributions":7,"per_cent":0.313,"insee":"59129"}},{"type":"Feature","geometry":{"type":"Point","coordinates":[3.107332169827418,45.83212394244352]},"properties":{"name":"C\u00e9bazat","contributions":61,"per_cent":0.699,"insee":"63063"}},{"type":"Feature","geometry":{"type":"Point","coordinates":[2.0055687749277133,48.30957339102757]},"properties":{"name":"Angerville","contributions":1,"per_cent":0.023,"insee":"91016"}},{"type":"Feature","geometry":{"type":"Point","coordinates":[1.4105358877073584,49.17364782604519]},"properties":{"name":"Port-Mort","contributions":2,"per_cent":0.218,"insee":"27473"}},{"type":"Feature","geometry":{"type":"Point","coordinates":[0.19238713696617019,46.25032220066674]},"properties":{"name":"Brux","contributions":1,"per_cent":0.137,"insee":"86039"}},{"type":"Feature","geometry":{"type":"Point","coordinates":[3.1068861023790313,47.12916401307475]},"properties":{"name":"Chaulgnes","contributions":1,"per_cent":0.066,"insee":"58067"}},{"type":"Feature","geometry":{"type":"Point","coordinates":[5.102600153517394,45.95008671138986]},"properties":{"name":"Joyeux","contributions":2,"per_cent":0.746,"insee":"01198"}},{"type":"Feature","geometry":{"type":"Point","coordinates":[3.2861365080757294,49.82326572328932]},"properties":{"name":"Gauchy","contributions":8,"per_cent":0.152,"insee":"02340"}},{"type":"Feature","geometry":{"type":"Point","coordinates":[-0.18189016132552935,47.34508555698175]},"properties":{"name":"Saint-Cl\u00e9ment-des-Lev\u00e9es","contributions":2,"per_cent":0.182,"insee":"49272"}},{"type":"Feature","geometry":{"type":"Point","coordinates":[5.61072458828343,47.43198810964772]},"properties":{"name":"Gray","contributions":1,"per_cent":0.018,"insee":"70279"}},{"type":"Feature","geometry":{"type":"Point","coordinates":[1.344676725982643,43.28013320845046]},"properties":{"name":"L\u00e9zat-sur-L\u00e8ze","contributions":1,"per_cent":0.043,"insee":"09167"}},{"type":"Feature","geometry":{"type":"Point","coordinates":[1.9884862588655547,49.37252171667544]},"properties":{"name":"Auneuil","contributions":2,"per_cent":0.07,"insee":"60029"}},{"type":"Feature","geometry":{"type":"Point","coordinates":[6.171868256788841,49.23458239477713]},"properties":{"name":"Talange","contributions":1,"per_cent":0.013,"insee":"57663"}},{"type":"Feature","geometry":{"type":"Point","coordinates":[3.0168729831889354,42.726082660940854]},"properties":{"name":"Sainte-Marie-la-Mer","contributions":4,"per_cent":0.083,"insee":"66182"}},{"type":"Feature","geometry":{"type":"Point","coordinates":[7.501593975923746,48.63949330141372]},"properties":{"name":"Nordheim","contributions":1,"per_cent":0.11,"insee":"67335"}},{"type":"Feature","geometry":{"type":"Point","coordinates":[-0.9310709165175158,46.787601345765]},"properties":{"name":"Le Boup\u00e8re","contributions":1,"per_cent":0.032,"insee":"85031"}},{"type":"Feature","geometry":{"type":"Point","coordinates":[4.450122451369044,45.63113031223208]},"properties":{"name":"Saint-Symphorien-sur-Coise","contributions":3,"per_cent":0.081,"insee":"69238"}},{"type":"Feature","geometry":{"type":"Point","coordinates":[7.630227390449469,48.25496238449967]},"properties":{"name":"Sundhouse","contributions":1,"per_cent":0.055,"insee":"67486"}},{"type":"Feature","geometry":{"type":"Point","coordinates":[3.127930605079056,50.67514282906803]},"properties":{"name":"Wasquehal","contributions":72,"per_cent":0.351,"insee":"59646"}},{"type":"Feature","geometry":{"type":"Point","coordinates":[7.6754077187126235,48.73897735419071]},"properties":{"name":"Krautwiller","contributions":1,"per_cent":0.405,"insee":"67249"}},{"type":"Feature","geometry":{"type":"Point","coordinates":[-0.17738119232213762,44.943542968980275]},"properties":{"name":"N\u00e9ac","contributions":1,"per_cent":0.274,"insee":"33302"}},{"type":"Feature","geometry":{"type":"Point","coordinates":[4.006268769729669,49.32003760659921]},"properties":{"name":"Courcy","contributions":1,"per_cent":0.088,"insee":"51183"}},{"type":"Feature","geometry":{"type":"Point","coordinates":[-2.975254411555174,48.61043598121392]},"properties":{"name":"Tressignaux","contributions":1,"per_cent":0.145,"insee":"22375"}},{"type":"Feature","geometry":{"type":"Point","coordinates":[6.407611091660653,46.164123527945165]},"properties":{"name":"Viuz-en-Sallaz","contributions":3,"per_cent":0.068,"insee":"74311"}},{"type":"Feature","geometry":{"type":"Point","coordinates":[0.17651001393692237,47.157471097204464]},"properties":{"name":"Cinais","contributions":1,"per_cent":0.243,"insee":"37076"}},{"type":"Feature","geometry":{"type":"Point","coordinates":[1.668162608254656,43.56137265354835]},"properties":{"name":"Lanta","contributions":3,"per_cent":0.142,"insee":"31271"}},{"type":"Feature","geometry":{"type":"Point","coordinates":[-0.47313205040675976,43.313657981012184]},"properties":{"name":"Artiguelouve","contributions":4,"per_cent":0.24,"insee":"64060"}},{"type":"Feature","geometry":{"type":"Point","coordinates":[5.796806670129698,45.143630390845566]},"properties":{"name":"Herbeys","contributions":8,"per_cent":0.588,"insee":"38188"}},{"type":"Feature","geometry":{"type":"Point","coordinates":[5.072933505861623,43.54383532843625]},"properties":{"name":"Saint-Chamas","contributions":68,"per_cent":0.791,"insee":"13092"}},{"type":"Feature","geometry":{"type":"Point","coordinates":[4.731038395615214,44.065708317825425]},"properties":{"name":"Saint-Geni\u00e8s-de-Comolas","contributions":1,"per_cent":0.05,"insee":"30254"}},{"type":"Feature","geometry":{"type":"Point","coordinates":[2.55413413623289,48.55134194520957]},"properties":{"name":"Seine-Port","contributions":3,"per_cent":0.16,"insee":"77447"}},{"type":"Feature","geometry":{"type":"Point","coordinates":[-0.9714660613937058,45.83079276110032]},"properties":{"name":"Saint-Jean-d'Angle","contributions":3,"per_cent":0.434,"insee":"17348"}},{"type":"Feature","geometry":{"type":"Point","coordinates":[4.958508760983931,45.27800152757393]},"properties":{"name":"Saint-Sorlin-en-Valloire","contributions":1,"per_cent":0.044,"insee":"26330"}},{"type":"Feature","geometry":{"type":"Point","coordinates":[4.362748460224217,45.592482861222564]},"properties":{"name":"Saint-M\u00e9dard-en-Forez","contributions":2,"per_cent":0.198,"insee":"42264"}},{"type":"Feature","geometry":{"type":"Point","coordinates":[3.074126258809066,45.664173114390046]},"properties":{"name":"Saint-Saturnin","contributions":2,"per_cent":0.171,"insee":"63396"}},{"type":"Feature","geometry":{"type":"Point","coordinates":[0.7819148027706081,45.142117600399644]},"properties":{"name":"Boulazac Isle Manoire","contributions":6,"per_cent":0.056,"insee":"24053"}},{"type":"Feature","geometry":{"type":"Point","coordinates":[-3.907154683108403,47.89643435257227]},"properties":{"name":"Concarneau","contributions":266,"per_cent":1.364,"insee":"29039"}},{"type":"Feature","geometry":{"type":"Point","coordinates":[3.0956314118498884,50.7099163440918]},"properties":{"name":"Bondues","contributions":85,"per_cent":0.853,"insee":"59090"}},{"type":"Feature","geometry":{"type":"Point","coordinates":[7.630347330227206,48.453503746098654]},"properties":{"name":"Limersheim","contributions":2,"per_cent":0.307,"insee":"67266"}},{"type":"Feature","geometry":{"type":"Point","coordinates":[2.6038752186445784,50.42475078473245]},"properties":{"name":"Fresnicourt-le-Dolmen","contributions":1,"per_cent":0.127,"insee":"62356"}},{"type":"Feature","geometry":{"type":"Point","coordinates":[-2.6235320906476933,47.82578573484735]},"properties":{"name":"Plumelec","contributions":6,"per_cent":0.224,"insee":"56172"}},{"type":"Feature","geometry":{"type":"Point","coordinates":[0.9050194445552606,47.80967636968571]},"properties":{"name":"Lunay","contributions":1,"per_cent":0.079,"insee":"41120"}},{"type":"Feature","geometry":{"type":"Point","coordinates":[-1.0569800129499383,49.0728884184601]},"properties":{"name":"Sainte-Suzanne-sur-Vire","contributions":1,"per_cent":0.145,"insee":"50556"}},{"type":"Feature","geometry":{"type":"Point","coordinates":[4.104797218154295,49.94280466519569]},"properties":{"name":"Hirson","contributions":5,"per_cent":0.057,"insee":"02381"}},{"type":"Feature","geometry":{"type":"Point","coordinates":[4.681036904392678,43.98141173941023]},"properties":{"name":"Rochefort-du-Gard","contributions":7,"per_cent":0.092,"insee":"30217"}},{"type":"Feature","geometry":{"type":"Point","coordinates":[1.8827921316722294,48.82037715524114]},"properties":{"name":"Villiers-Saint-Fr\u00e9d\u00e9ric","contributions":30,"per_cent":1.032,"insee":"78683"}},{"type":"Feature","geometry":{"type":"Point","coordinates":[1.783195783577437,48.57645769656689]},"properties":{"name":"Orphin","contributions":6,"per_cent":0.67,"insee":"78470"}},{"type":"Feature","geometry":{"type":"Point","coordinates":[0.5867809743480075,49.50212839915416]},"properties":{"name":"Port-J\u00e9r\u00f4me-sur-Seine","contributions":29,"per_cent":0.286,"insee":"76476"}},{"type":"Feature","geometry":{"type":"Point","coordinates":[5.158848337473652,45.11339957964042]},"properties":{"name":"Parnans","contributions":1,"per_cent":0.144,"insee":"26225"}},{"type":"Feature","geometry":{"type":"Point","coordinates":[3.635877214261891,45.69035713193484]},"properties":{"name":"Olliergues","contributions":2,"per_cent":0.265,"insee":"63258"}},{"type":"Feature","geometry":{"type":"Point","coordinates":[0.6269687527215771,42.734956457859916]},"properties":{"name":"Bagn\u00e8res-de-Luchon","contributions":3,"per_cent":0.131,"insee":"31042"}},{"type":"Feature","geometry":{"type":"Point","coordinates":[5.104660326165845,47.292137703226835]},"properties":{"name":"Sennecey-l\u00e8s-Dijon","contributions":11,"per_cent":0.549,"insee":"21605"}},{"type":"Feature","geometry":{"type":"Point","coordinates":[1.8264077703008692,48.6535439302101]},"properties":{"name":"Rambouillet","contributions":310,"per_cent":1.151,"insee":"78517"}},{"type":"Feature","geometry":{"type":"Point","coordinates":[2.148740694160007,44.662518420677905]},"properties":{"name":"Bagnac-sur-C\u00e9l\u00e9","contributions":1,"per_cent":0.068,"insee":"46015"}},{"type":"Feature","geometry":{"type":"Point","coordinates":[4.812560271099495,46.073642486915624]},"properties":{"name":"Francheleins","contributions":1,"per_cent":0.062,"insee":"01165"}},{"type":"Feature","geometry":{"type":"Point","coordinates":[1.1676046352225862,49.34741551473094]},"properties":{"name":"Ymare","contributions":3,"per_cent":0.26,"insee":"76753"}},{"type":"Feature","geometry":{"type":"Point","coordinates":[0.19118323653729064,47.92865101518637]},"properties":{"name":"Arnage","contributions":71,"per_cent":1.327,"insee":"72008"}},{"type":"Feature","geometry":{"type":"Point","coordinates":[-2.8988012039943247,48.604208149767196]},"properties":{"name":"Lantic","contributions":3,"per_cent":0.178,"insee":"22117"}},{"type":"Feature","geometry":{"type":"Point","coordinates":[4.69207442730962,44.05538913480042]},"properties":{"name":"Saint-Laurent-des-Arbres","contributions":4,"per_cent":0.132,"insee":"30278"}},{"type":"Feature","geometry":{"type":"Point","coordinates":[0.47421192282546265,47.30688757444834]},"properties":{"name":"Vall\u00e8res","contributions":1,"per_cent":0.078,"insee":"37264"}},{"type":"Feature","geometry":{"type":"Point","coordinates":[-0.6914792475329335,47.48666606657643]},"properties":{"name":"Saint-Lambert-la-Potherie","contributions":2,"per_cent":0.069,"insee":"49294"}},{"type":"Feature","geometry":{"type":"Point","coordinates":[4.771193452662176,45.83093941739254]},"properties":{"name":"Limonest","contributions":11,"per_cent":0.302,"insee":"69116"}},{"type":"Feature","geometry":{"type":"Point","coordinates":[0.5943783492814829,44.19367378336305]},"properties":{"name":"Le Passage","contributions":10,"per_cent":0.106,"insee":"47201"}},{"type":"Feature","geometry":{"type":"Point","coordinates":[6.868962376695819,47.56651241193353]},"properties":{"name":"Tr\u00e9venans","contributions":2,"per_cent":0.158,"insee":"90097"}},{"type":"Feature","geometry":{"type":"Point","coordinates":[0.050954968769353605,49.14566256047116]},"properties":{"name":"Cambremer","contributions":1,"per_cent":0.074,"insee":"14126"}},{"type":"Feature","geometry":{"type":"Point","coordinates":[2.0952333310999354,48.73909512824076]},"properties":{"name":"Ch\u00e2teaufort","contributions":13,"per_cent":0.923,"insee":"78143"}},{"type":"Feature","geometry":{"type":"Point","coordinates":[-3.449716642214477,48.78153278368956]},"properties":{"name":"Saint-Quay-Perros","contributions":25,"per_cent":1.929,"insee":"22324"}},{"type":"Feature","geometry":{"type":"Point","coordinates":[2.8365271141265476,50.5359575973231]},"properties":{"name":"Salom\u00e9","contributions":3,"per_cent":0.101,"insee":"59550"}},{"type":"Feature","geometry":{"type":"Point","coordinates":[2.6597978424352458,49.154596194819106]},"properties":{"name":"Fontaine-Chaalis","contributions":2,"per_cent":0.585,"insee":"60241"}},{"type":"Feature","geometry":{"type":"Point","coordinates":[-0.8701028978475462,48.34674857633032]},"properties":{"name":"Saint-Denis-de-Gastines","contributions":2,"per_cent":0.136,"insee":"53211"}},{"type":"Feature","geometry":{"type":"Point","coordinates":[1.1415235892575097,49.01978458932655]},"properties":{"name":"\u00c9vreux","contributions":296,"per_cent":0.634,"insee":"27229"}},{"type":"Feature","geometry":{"type":"Point","coordinates":[-1.1076427919593768,44.983429981107996]},"properties":{"name":"Lacanau","contributions":169,"per_cent":3.325,"insee":"33214"}},{"type":"Feature","geometry":{"type":"Point","coordinates":[5.293268027579756,45.19196883781268]},"properties":{"name":"Chevri\u00e8res","contributions":1,"per_cent":0.139,"insee":"38099"}},{"type":"Feature","geometry":{"type":"Point","coordinates":[1.5109490057536334,43.70107804929084]},"properties":{"name":"Lapeyrouse-Fossat","contributions":3,"per_cent":0.105,"insee":"31273"}},{"type":"Feature","geometry":{"type":"Point","coordinates":[4.166392410718684,43.50728820630823]},"properties":{"name":"Le Grau-du-Roi","contributions":103,"per_cent":1.218,"insee":"30133"}},{"type":"Feature","geometry":{"type":"Point","coordinates":[2.5857001460258413,49.2118864163867]},"properties":{"name":"Senlis","contributions":106,"per_cent":0.712,"insee":"60612"}},{"type":"Feature","geometry":{"type":"Point","coordinates":[3.112215287863707,50.589514191945916]},"properties":{"name":"Lesquin","contributions":80,"per_cent":0.926,"insee":"59343"}},{"type":"Feature","geometry":{"type":"Point","coordinates":[-0.5744276715878319,45.11703378907075]},"properties":{"name":"Berson","contributions":1,"per_cent":0.055,"insee":"33047"}},{"type":"Feature","geometry":{"type":"Point","coordinates":[2.341259252501445,48.60711237257006]},"properties":{"name":"Le Plessis-P\u00e2t\u00e9","contributions":8,"per_cent":0.194,"insee":"91494"}},{"type":"Feature","geometry":{"type":"Point","coordinates":[2.4825609755818716,50.561542957973096]},"properties":{"name":"Lillers","contributions":6,"per_cent":0.061,"insee":"62516"}},{"type":"Feature","geometry":{"type":"Point","coordinates":[1.7828650810123006,48.95294827272961]},"properties":{"name":"M\u00e9zi\u00e8res-sur-Seine","contributions":9,"per_cent":0.243,"insee":"78402"}},{"type":"Feature","geometry":{"type":"Point","coordinates":[-2.6541192974381755,47.52941373911415]},"properties":{"name":"Le Tour-du-Parc","contributions":2,"per_cent":0.164,"insee":"56252"}},{"type":"Feature","geometry":{"type":"Point","coordinates":[4.997434210058543,45.8394765178208]},"properties":{"name":"Beynost","contributions":68,"per_cent":1.452,"insee":"01043"}},{"type":"Feature","geometry":{"type":"Point","coordinates":[-0.9457899802730143,46.99112583162865]},"properties":{"name":"Mortagne-sur-S\u00e8vre","contributions":4,"per_cent":0.067,"insee":"85151"}},{"type":"Feature","geometry":{"type":"Point","coordinates":[5.986965546780854,43.212574966982466]},"properties":{"name":"Solli\u00e8s-Toucas","contributions":14,"per_cent":0.246,"insee":"83131"}},{"type":"Feature","geometry":{"type":"Point","coordinates":[-0.4856854409087224,47.4736884802983]},"properties":{"name":"Saint-Barth\u00e9lemy-d'Anjou","contributions":70,"per_cent":0.761,"insee":"49267"}},{"type":"Feature","geometry":{"type":"Point","coordinates":[-1.9652896722714333,48.603981666553594]},"properties":{"name":"Saint-Jouan-des-Gu\u00e9rets","contributions":15,"per_cent":0.562,"insee":"35284"}},{"type":"Feature","geometry":{"type":"Point","coordinates":[6.394101583962182,48.17365606830396]},"properties":{"name":"Les Forges","contributions":26,"per_cent":1.405,"insee":"88178"}},{"type":"Feature","geometry":{"type":"Point","coordinates":[3.482821444118051,46.137529368244046]},"properties":{"name":"Cusset","contributions":6,"per_cent":0.047,"insee":"03095"}},{"type":"Feature","geometry":{"type":"Point","coordinates":[6.228989056826388,43.56168482920361]},"properties":{"name":"Salernes","contributions":2,"per_cent":0.053,"insee":"83121"}},{"type":"Feature","geometry":{"type":"Point","coordinates":[2.5665496775750896,48.898040818662004]},"properties":{"name":"Montfermeil","contributions":30,"per_cent":0.11,"insee":"93047"}},{"type":"Feature","geometry":{"type":"Point","coordinates":[4.913400869394805,44.13217953881256]},"properties":{"name":"Jonqui\u00e8res","contributions":72,"per_cent":1.325,"insee":"84056"}},{"type":"Feature","geometry":{"type":"Point","coordinates":[1.1016141211413901,47.56552416175004]},"properties":{"name":"Santenay","contributions":1,"per_cent":0.35,"insee":"41234"}},{"type":"Feature","geometry":{"type":"Point","coordinates":[2.2878088606214533,48.91591925015024]},"properties":{"name":"Asni\u00e8res-sur-Seine","contributions":472,"per_cent":0.549,"insee":"92004"}},{"type":"Feature","geometry":{"type":"Point","coordinates":[3.1033481069032938,50.48212284989782]},"properties":{"name":"Mons-en-P\u00e9v\u00e8le","contributions":2,"per_cent":0.094,"insee":"59411"}},{"type":"Feature","geometry":{"type":"Point","coordinates":[1.3789845042722897,48.67484089602828]},"properties":{"name":"Marville-Moutiers-Br\u00fbl\u00e9","contributions":1,"per_cent":0.102,"insee":"28239"}},{"type":"Feature","geometry":{"type":"Point","coordinates":[5.843849526709808,48.26141136087282]},"properties":{"name":"Sandaucourt","contributions":1,"per_cent":0.585,"insee":"88440"}},{"type":"Feature","geometry":{"type":"Point","coordinates":[1.092381046281202,49.03191603579934]},"properties":{"name":"Parville","contributions":1,"per_cent":0.333,"insee":"27451"}},{"type":"Feature","geometry":{"type":"Point","coordinates":[2.6844033207196563,49.29096853372532]},"properties":{"name":"Roberval","contributions":1,"per_cent":0.275,"insee":"60541"}},{"type":"Feature","geometry":{"type":"Point","coordinates":[6.426552142529431,44.87292525218521]},"properties":{"name":"Vallouise-Pelvoux","contributions":1,"per_cent":0.085,"insee":"05101"}},{"type":"Feature","geometry":{"type":"Point","coordinates":[7.11009118569324,48.35197580569089]},"properties":{"name":"Saales","contributions":1,"per_cent":0.12,"insee":"67421"}},{"type":"Feature","geometry":{"type":"Point","coordinates":[4.950292862832571,46.724046094227624]},"properties":{"name":"Ouroux-sur-Sa\u00f4ne","contributions":1,"per_cent":0.033,"insee":"71336"}},{"type":"Feature","geometry":{"type":"Point","coordinates":[0.52931369179017,49.79920095731726]},"properties":{"name":"Sassetot-le-Mauconduit","contributions":1,"per_cent":0.094,"insee":"76663"}},{"type":"Feature","geometry":{"type":"Point","coordinates":[2.6227795712839144,47.493819366663]},"properties":{"name":"Barlieu","contributions":1,"per_cent":0.288,"insee":"18022"}},{"type":"Feature","geometry":{"type":"Point","coordinates":[1.9418187755980252,50.70155724471854]},"properties":{"name":"Quesques","contributions":1,"per_cent":0.147,"insee":"62678"}},{"type":"Feature","geometry":{"type":"Point","coordinates":[5.771762665132246,45.58818524378055]},"properties":{"name":"Novalaise","contributions":6,"per_cent":0.284,"insee":"73191"}},{"type":"Feature","geometry":{"type":"Point","coordinates":[2.859883545578496,50.42049641743858]},"properties":{"name":"Sallaumines","contributions":2,"per_cent":0.021,"insee":"62771"}},{"type":"Feature","geometry":{"type":"Point","coordinates":[-1.5278699136133067,49.62859603822109]},"properties":{"name":"Digosville","contributions":1,"per_cent":0.064,"insee":"50162"}},{"type":"Feature","geometry":{"type":"Point","coordinates":[4.117454457926869,43.635350393412]},"properties":{"name":"Saint-Nazaire-de-P\u00e9zan","contributions":1,"per_cent":0.161,"insee":"34280"}},{"type":"Feature","geometry":{"type":"Point","coordinates":[5.056312188833876,43.91311489208078]},"properties":{"name":"L'Isle-sur-la-Sorgue","contributions":61,"per_cent":0.31,"insee":"84054"}},{"type":"Feature","geometry":{"type":"Point","coordinates":[4.303488938732576,46.18829667458162]},"properties":{"name":"Saint-Igny-de-Roche","contributions":1,"per_cent":0.131,"insee":"71428"}},{"type":"Feature","geometry":{"type":"Point","coordinates":[1.7537218872888145,44.24251074825423]},"properties":{"name":"Caylus","contributions":1,"per_cent":0.069,"insee":"82038"}},{"type":"Feature","geometry":{"type":"Point","coordinates":[2.3730312592760727,50.550727223315086]},"properties":{"name":"Auchy-au-Bois","contributions":1,"per_cent":0.193,"insee":"62049"}},{"type":"Feature","geometry":{"type":"Point","coordinates":[7.424180970091474,48.50837528682063]},"properties":{"name":"Rosenwiller","contributions":2,"per_cent":0.297,"insee":"67410"}},{"type":"Feature","geometry":{"type":"Point","coordinates":[-4.619768096569825,48.56236228989567]},"properties":{"name":"Saint-Pabu","contributions":87,"per_cent":4.199,"insee":"29257"}},{"type":"Feature","geometry":{"type":"Point","coordinates":[-3.670285182038426,48.62168331231679]},"properties":{"name":"Plou\u00e9gat-Gu\u00e9rand","contributions":1,"per_cent":0.094,"insee":"29182"}},{"type":"Feature","geometry":{"type":"Point","coordinates":[-0.6170896202977779,43.37403873288832]},"properties":{"name":"Mourenx","contributions":2,"per_cent":0.032,"insee":"64410"}},{"type":"Feature","geometry":{"type":"Point","coordinates":[3.393709629038415,50.381175908778665]},"properties":{"name":"Wallers","contributions":5,"per_cent":0.09,"insee":"59632"}},{"type":"Feature","geometry":{"type":"Point","coordinates":[-0.7081644807540044,47.46119991368723]},"properties":{"name":"Saint-L\u00e9ger-de-Lini\u00e8res","contributions":24,"per_cent":0.66,"insee":"49298"}},{"type":"Feature","geometry":{"type":"Point","coordinates":[4.639277041559423,44.252525241200786]},"properties":{"name":"Pont-Saint-Esprit","contributions":60,"per_cent":0.577,"insee":"30202"}},{"type":"Feature","geometry":{"type":"Point","coordinates":[3.289830710321443,43.317205211390714]},"properties":{"name":"Villeneuve-l\u00e8s-B\u00e9ziers","contributions":4,"per_cent":0.096,"insee":"34336"}},{"type":"Feature","geometry":{"type":"Point","coordinates":[-0.500394709466146,44.79032949515764]},"properties":{"name":"Latresne","contributions":64,"per_cent":1.822,"insee":"33234"}},{"type":"Feature","geometry":{"type":"Point","coordinates":[2.6122626265404816,50.02332819604576]},"properties":{"name":"Bouzincourt","contributions":1,"per_cent":0.183,"insee":"80129"}},{"type":"Feature","geometry":{"type":"Point","coordinates":[-1.3969445351363865,43.48461997439375]},"properties":{"name":"Lahonce","contributions":1,"per_cent":0.041,"insee":"64304"}},{"type":"Feature","geometry":{"type":"Point","coordinates":[2.329622987566789,49.160642757148416]},"properties":{"name":"Bruy\u00e8res-sur-Oise","contributions":3,"per_cent":0.069,"insee":"95116"}},{"type":"Feature","geometry":{"type":"Point","coordinates":[1.8276271293075348,48.82152700552122]},"properties":{"name":"Vicq","contributions":6,"per_cent":1.55,"insee":"78653"}},{"type":"Feature","geometry":{"type":"Point","coordinates":[-0.5114861340703492,45.893610947946655]},"properties":{"name":"Asni\u00e8res-la-Giraud","contributions":1,"per_cent":0.097,"insee":"17022"}},{"type":"Feature","geometry":{"type":"Point","coordinates":[3.9621348277981636,49.76804964930797]},"properties":{"name":"Braye-en-Thi\u00e9rache","contributions":1,"per_cent":0.685,"insee":"02116"}},{"type":"Feature","geometry":{"type":"Point","coordinates":[5.13982746562936,48.09789136972181]},"properties":{"name":"Chaumont","contributions":180,"per_cent":0.819,"insee":"52121"}},{"type":"Feature","geometry":{"type":"Point","coordinates":[5.918714179178471,47.18586010766325]},"properties":{"name":"Montferrand-le-Ch\u00e2teau","contributions":8,"per_cent":0.368,"insee":"25397"}},{"type":"Feature","geometry":{"type":"Point","coordinates":[-1.8209893056260635,49.510421073399925]},"properties":{"name":"Les Pieux","contributions":2,"per_cent":0.062,"insee":"50402"}},{"type":"Feature","geometry":{"type":"Point","coordinates":[0.17514729378155183,49.59528155663425]},"properties":{"name":"Mannevillette","contributions":1,"per_cent":0.115,"insee":"76409"}},{"type":"Feature","geometry":{"type":"Point","coordinates":[5.8773098532705585,43.51500785401482]},"properties":{"name":"Seillons-Source-d'Argens","contributions":1,"per_cent":0.04,"insee":"83125"}},{"type":"Feature","geometry":{"type":"Point","coordinates":[6.896346931719845,47.48262211501858]},"properties":{"name":"Dasle","contributions":3,"per_cent":0.214,"insee":"25196"}},{"type":"Feature","geometry":{"type":"Point","coordinates":[5.0499862627434755,44.15529569045379]},"properties":{"name":"Lafare","contributions":1,"per_cent":0.84,"insee":"84059"}},{"type":"Feature","geometry":{"type":"Point","coordinates":[5.279511278870207,45.13994981867207]},"properties":{"name":"Chatte","contributions":19,"per_cent":0.76,"insee":"38095"}},{"type":"Feature","geometry":{"type":"Point","coordinates":[-1.1946848395524365,48.27100570715067]},"properties":{"name":"Parc\u00e9","contributions":1,"per_cent":0.154,"insee":"35214"}},{"type":"Feature","geometry":{"type":"Point","coordinates":[0.12837714508839151,45.68171264422278]},"properties":{"name":"Saint-Yrieix-sur-Charente","contributions":7,"per_cent":0.096,"insee":"16358"}},{"type":"Feature","geometry":{"type":"Point","coordinates":[6.85488606149227,47.846604450162374]},"properties":{"name":"Saint-Maurice-sur-Moselle","contributions":2,"per_cent":0.144,"insee":"88426"}},{"type":"Feature","geometry":{"type":"Point","coordinates":[-0.7271044534419978,44.723888442290985]},"properties":{"name":"Cestas","contributions":103,"per_cent":0.608,"insee":"33122"}},{"type":"Feature","geometry":{"type":"Point","coordinates":[0.7264420826096024,49.384901524543864]},"properties":{"name":"Routot","contributions":2,"per_cent":0.121,"insee":"27500"}},{"type":"Feature","geometry":{"type":"Point","coordinates":[2.384529976193819,48.91249057784124]},"properties":{"name":"Aubervilliers","contributions":358,"per_cent":0.409,"insee":"93001"}},{"type":"Feature","geometry":{"type":"Point","coordinates":[7.378649151039081,47.59602540045691]},"properties":{"name":"Jettingen","contributions":1,"per_cent":0.201,"insee":"68158"}},{"type":"Feature","geometry":{"type":"Point","coordinates":[6.295381315233344,48.6222345100951]},"properties":{"name":"Saint-Nicolas-de-Port","contributions":6,"per_cent":0.08,"insee":"54483"}},{"type":"Feature","geometry":{"type":"Point","coordinates":[-0.22914030255287826,43.221626363211925]},"properties":{"name":"Beuste","contributions":1,"per_cent":0.154,"insee":"64119"}},{"type":"Feature","geometry":{"type":"Point","coordinates":[0.23066145878246028,45.68375414724413]},"properties":{"name":"Ruelle-sur-Touvre","contributions":3,"per_cent":0.041,"insee":"16291"}},{"type":"Feature","geometry":{"type":"Point","coordinates":[4.899370704954515,46.56530257519779]},"properties":{"name":"Tournus","contributions":7,"per_cent":0.127,"insee":"71543"}},{"type":"Feature","geometry":{"type":"Point","coordinates":[1.783808359050858,48.90691713423584]},"properties":{"name":"Jumeauville","contributions":1,"per_cent":0.164,"insee":"78325"}},{"type":"Feature","geometry":{"type":"Point","coordinates":[3.8768557265029524,43.8572528130437]},"properties":{"name":"Claret","contributions":7,"per_cent":0.433,"insee":"34078"}},{"type":"Feature","geometry":{"type":"Point","coordinates":[5.278540073459383,48.72000610814357]},"properties":{"name":"Tronville-en-Barrois","contributions":1,"per_cent":0.072,"insee":"55519"}},{"type":"Feature","geometry":{"type":"Point","coordinates":[-0.24125718523095657,44.53726483534214]},"properties":{"name":"Langon","contributions":22,"per_cent":0.298,"insee":"33227"}},{"type":"Feature","geometry":{"type":"Point","coordinates":[0.7871071385404681,49.73004815371675]},"properties":{"name":"Doudeville","contributions":1,"per_cent":0.04,"insee":"76219"}},{"type":"Feature","geometry":{"type":"Point","coordinates":[6.2103364412380735,49.19880062101835]},"properties":{"name":"Argancy","contributions":1,"per_cent":0.075,"insee":"57028"}},{"type":"Feature","geometry":{"type":"Point","coordinates":[-2.079861466585637,47.99665972400987]},"properties":{"name":"Pl\u00e9lan-le-Grand","contributions":7,"per_cent":0.176,"insee":"35223"}},{"type":"Feature","geometry":{"type":"Point","coordinates":[5.1853612159427875,45.61558337935115]},"properties":{"name":"Vaulx-Milieu","contributions":4,"per_cent":0.157,"insee":"38530"}},{"type":"Feature","geometry":{"type":"Point","coordinates":[5.112727427220094,47.27353551773921]},"properties":{"name":"Neuilly-Crimolois","contributions":1,"per_cent":0.036,"insee":"21452"}},{"type":"Feature","geometry":{"type":"Point","coordinates":[-0.5294562891819833,44.74656022404882]},"properties":{"name":"Cadaujac","contributions":111,"per_cent":1.785,"insee":"33080"}},{"type":"Feature","geometry":{"type":"Point","coordinates":[5.766039789633773,49.521525281222026]},"properties":{"name":"Longwy","contributions":4,"per_cent":0.027,"insee":"54323"}},{"type":"Feature","geometry":{"type":"Point","coordinates":[5.508326539787532,43.519899657988425]},"properties":{"name":"Le Tholonet","contributions":16,"per_cent":0.706,"insee":"13109"}},{"type":"Feature","geometry":{"type":"Point","coordinates":[-0.4437324803964454,47.624596500186314]},"properties":{"name":"Tierc\u00e9","contributions":2,"per_cent":0.045,"insee":"49347"}},{"type":"Feature","geometry":{"type":"Point","coordinates":[7.223380391096104,43.758646519037335]},"properties":{"name":"Colomars","contributions":1,"per_cent":0.029,"insee":"06046"}},{"type":"Feature","geometry":{"type":"Point","coordinates":[1.0253399064256912,44.88313117823098]},"properties":{"name":"Saint-Cyprien","contributions":1,"per_cent":0.064,"insee":"24396"}},{"type":"Feature","geometry":{"type":"Point","coordinates":[7.85967035717613,48.75850074355847]},"properties":{"name":"Bischwiller","contributions":3,"per_cent":0.024,"insee":"67046"}},{"type":"Feature","geometry":{"type":"Point","coordinates":[-1.1895654147871326,44.21210952971341]},"properties":{"name":"Aureilhan","contributions":3,"per_cent":0.28,"insee":"40019"}},{"type":"Feature","geometry":{"type":"Point","coordinates":[2.6944335978713494,48.858129415689696]},"properties":{"name":"Gouvernes","contributions":4,"per_cent":0.338,"insee":"77209"}},{"type":"Feature","geometry":{"type":"Point","coordinates":[-0.3983454606430441,49.25088321979512]},"properties":{"name":"Anisy","contributions":1,"per_cent":0.136,"insee":"14015"}},{"type":"Feature","geometry":{"type":"Point","coordinates":[1.98360343258255,49.147617384546294]},"properties":{"name":"Marines","contributions":3,"per_cent":0.087,"insee":"95370"}},{"type":"Feature","geometry":{"type":"Point","coordinates":[3.041495901678449,50.58625657352207]},"properties":{"name":"Wattignies","contributions":77,"per_cent":0.523,"insee":"59648"}},{"type":"Feature","geometry":{"type":"Point","coordinates":[-0.3922855888746267,47.872352844989706]},"properties":{"name":"Bouessay","contributions":1,"per_cent":0.137,"insee":"53037"}},{"type":"Feature","geometry":{"type":"Point","coordinates":[3.163254826550305,48.95690035893624]},"properties":{"name":"Reuil-en-Brie","contributions":2,"per_cent":0.241,"insee":"77388"}},{"type":"Feature","geometry":{"type":"Point","coordinates":[6.508544606819451,45.51182688273405]},"properties":{"name":"Grand-Aigueblanche","contributions":1,"per_cent":0.026,"insee":"73003"}},{"type":"Feature","geometry":{"type":"Point","coordinates":[-0.9742781778119114,46.23770385438265]},"properties":{"name":"Long\u00e8ves","contributions":1,"per_cent":0.1,"insee":"17208"}},{"type":"Feature","geometry":{"type":"Point","coordinates":[2.208576969746455,50.70129634898966]},"properties":{"name":"Hallines","contributions":1,"per_cent":0.083,"insee":"62403"}},{"type":"Feature","geometry":{"type":"Point","coordinates":[1.131135208077663,44.80172726621062]},"properties":{"name":"Castelnaud-la-Chapelle","contributions":1,"per_cent":0.221,"insee":"24086"}},{"type":"Feature","geometry":{"type":"Point","coordinates":[2.781278772343634,48.404341685115725]},"properties":{"name":"Thomery","contributions":22,"per_cent":0.639,"insee":"77463"}},{"type":"Feature","geometry":{"type":"Point","coordinates":[3.241371993073642,50.610931234430886]},"properties":{"name":"Baisieux","contributions":92,"per_cent":1.923,"insee":"59044"}},{"type":"Feature","geometry":{"type":"Point","coordinates":[1.6264317057218758,43.28423424825206]},"properties":{"name":"Calmont","contributions":1,"per_cent":0.042,"insee":"31100"}},{"type":"Feature","geometry":{"type":"Point","coordinates":[0.5609486555470271,48.520654612403696]},"properties":{"name":"Mortagne-au-Perche","contributions":4,"per_cent":0.105,"insee":"61293"}},{"type":"Feature","geometry":{"type":"Point","coordinates":[7.203468439956629,48.02788788610219]},"properties":{"name":"Soultzbach-les-Bains","contributions":3,"per_cent":0.411,"insee":"68316"}},{"type":"Feature","geometry":{"type":"Point","coordinates":[3.1043018496760513,42.502441299574606]},"properties":{"name":"Port-Vendres","contributions":1,"per_cent":0.025,"insee":"66148"}},{"type":"Feature","geometry":{"type":"Point","coordinates":[1.5374314652018004,43.68491735240079]},"properties":{"name":"Castelmaurou","contributions":52,"per_cent":1.204,"insee":"31117"}},{"type":"Feature","geometry":{"type":"Point","coordinates":[1.6125027304004484,50.56432713545538]},"properties":{"name":"Camiers","contributions":1,"per_cent":0.036,"insee":"62201"}},{"type":"Feature","geometry":{"type":"Point","coordinates":[-1.4151269226538743,46.79015928607917]},"properties":{"name":"Bellevigny","contributions":3,"per_cent":0.049,"insee":"85019"}},{"type":"Feature","geometry":{"type":"Point","coordinates":[5.658498885529682,43.360824035668266]},"properties":{"name":"Auriol","contributions":52,"per_cent":0.407,"insee":"13007"}},{"type":"Feature","geometry":{"type":"Point","coordinates":[3.818571045309527,49.28609649731377]},"properties":{"name":"Jonchery-sur-Vesle","contributions":2,"per_cent":0.108,"insee":"51308"}},{"type":"Feature","geometry":{"type":"Point","coordinates":[3.2599776126994544,48.53444674014597]},"properties":{"name":"Sainte-Colombe","contributions":1,"per_cent":0.055,"insee":"77404"}},{"type":"Feature","geometry":{"type":"Point","coordinates":[3.286269685071405,50.51663032490727]},"properties":{"name":"Mouchin","contributions":2,"per_cent":0.143,"insee":"59419"}},{"type":"Feature","geometry":{"type":"Point","coordinates":[1.7443327371695483,47.37475904425325]},"properties":{"name":"Romorantin-Lanthenay","contributions":114,"per_cent":0.638,"insee":"41194"}},{"type":"Feature","geometry":{"type":"Point","coordinates":[4.772636693802021,45.7818803994778]},"properties":{"name":"\u00c9cully","contributions":81,"per_cent":0.436,"insee":"69081"}},{"type":"Feature","geometry":{"type":"Point","coordinates":[0.6063386128149769,44.63883876633493]},"properties":{"name":"Castillonn\u00e8s","contributions":1,"per_cent":0.072,"insee":"47057"}},{"type":"Feature","geometry":{"type":"Point","coordinates":[-0.8926919252453435,48.27937326579373]},"properties":{"name":"Montenay","contributions":1,"per_cent":0.073,"insee":"53155"}},{"type":"Feature","geometry":{"type":"Point","coordinates":[4.6566115254220115,44.63478651177666]},"properties":{"name":"Saint-Martin-sur-Lavezon","contributions":1,"per_cent":0.233,"insee":"07270"}},{"type":"Feature","geometry":{"type":"Point","coordinates":[-1.9104525309100664,48.13824012985187]},"properties":{"name":"Breteil","contributions":6,"per_cent":0.166,"insee":"35040"}},{"type":"Feature","geometry":{"type":"Point","coordinates":[6.942872734218843,49.167774281080085]},"properties":{"name":"Behren-l\u00e8s-Forbach","contributions":1,"per_cent":0.015,"insee":"57058"}},{"type":"Feature","geometry":{"type":"Point","coordinates":[-0.1932073721351816,43.261847642001726]},"properties":{"name":"Soumoulou","contributions":2,"per_cent":0.127,"insee":"64526"}},{"type":"Feature","geometry":{"type":"Point","coordinates":[55.49236033877098,-21.20403846179866]},"properties":{"name":"Entre-Deux","contributions":53,"per_cent":0.767,"insee":"97403"}},{"type":"Feature","geometry":{"type":"Point","coordinates":[7.704332834360811,48.31165058019185]},"properties":{"name":"Rhinau","contributions":5,"per_cent":0.186,"insee":"67397"}},{"type":"Feature","geometry":{"type":"Point","coordinates":[4.242957634668688,44.41322965133306]},"properties":{"name":"Chandolas","contributions":1,"per_cent":0.196,"insee":"07053"}},{"type":"Feature","geometry":{"type":"Point","coordinates":[-0.7550406368238665,47.635752058865386]},"properties":{"name":"Le Lion-d'Angers","contributions":27,"per_cent":0.543,"insee":"49176"}},{"type":"Feature","geometry":{"type":"Point","coordinates":[7.6316946761066236,48.68206131653936]},"properties":{"name":"Berstett","contributions":4,"per_cent":0.163,"insee":"67034"}},{"type":"Feature","geometry":{"type":"Point","coordinates":[55.45879971940809,-21.143836504280397]},"properties":{"name":"Cilaos","contributions":1,"per_cent":0.018,"insee":"97424"}},{"type":"Feature","geometry":{"type":"Point","coordinates":[3.954218630615975,50.25839760381444]},"properties":{"name":"Louvroil","contributions":1,"per_cent":0.016,"insee":"59365"}},{"type":"Feature","geometry":{"type":"Point","coordinates":[0.09586428526601849,46.67769607748646]},"properties":{"name":"Maill\u00e9","contributions":1,"per_cent":0.153,"insee":"86142"}},{"type":"Feature","geometry":{"type":"Point","coordinates":[-1.1003567359778048,45.722615243583505]},"properties":{"name":"\u00c9taules","contributions":5,"per_cent":0.196,"insee":"17155"}},{"type":"Feature","geometry":{"type":"Point","coordinates":[7.67366529136271,48.63307513618677]},"properties":{"name":"Griesheim-sur-Souffel","contributions":4,"per_cent":0.344,"insee":"67173"}},{"type":"Feature","geometry":{"type":"Point","coordinates":[2.3385766697495525,50.6659167162239]},"properties":{"name":"Roquetoire","contributions":1,"per_cent":0.052,"insee":"62721"}},{"type":"Feature","geometry":{"type":"Point","coordinates":[0.8779361336170485,48.29308005100012]},"properties":{"name":"Trizay-Coutretot-Saint-Serge","contributions":1,"per_cent":0.228,"insee":"28395"}},{"type":"Feature","geometry":{"type":"Point","coordinates":[6.533425090905688,46.14551610574879]},"properties":{"name":"Mieussy","contributions":2,"per_cent":0.084,"insee":"74183"}},{"type":"Feature","geometry":{"type":"Point","coordinates":[3.0882812588073274,45.7207656884743]},"properties":{"name":"Romagnat","contributions":53,"per_cent":0.68,"insee":"63307"}},{"type":"Feature","geometry":{"type":"Point","coordinates":[0.9194583338760053,49.323678727979704]},"properties":{"name":"La Londe","contributions":4,"per_cent":0.171,"insee":"76391"}},{"type":"Feature","geometry":{"type":"Point","coordinates":[-3.311657916704039,48.22135025019969]},"properties":{"name":"Rostrenen","contributions":5,"per_cent":0.163,"insee":"22266"}},{"type":"Feature","geometry":{"type":"Point","coordinates":[-0.24595185427418026,49.20603991868566]},"properties":{"name":"Escoville","contributions":2,"per_cent":0.248,"insee":"14246"}},{"type":"Feature","geometry":{"type":"Point","coordinates":[2.3948829857075484,51.017838468475325]},"properties":{"name":"Coudekerque-Branche","contributions":71,"per_cent":0.339,"insee":"59155"}},{"type":"Feature","geometry":{"type":"Point","coordinates":[6.6116469346039235,43.35649616947915]},"properties":{"name":"Sainte-Maxime","contributions":20,"per_cent":0.14,"insee":"83115"}},{"type":"Feature","geometry":{"type":"Point","coordinates":[1.6883772685154983,48.65374448154864]},"properties":{"name":"Hermeray","contributions":1,"per_cent":0.105,"insee":"78307"}},{"type":"Feature","geometry":{"type":"Point","coordinates":[4.8808668235768975,45.52083074690307]},"properties":{"name":"Vienne","contributions":153,"per_cent":0.517,"insee":"38544"}},{"type":"Feature","geometry":{"type":"Point","coordinates":[6.430090835719611,48.2278126729176]},"properties":{"name":"Chavelot","contributions":1,"per_cent":0.072,"insee":"88099"}},{"type":"Feature","geometry":{"type":"Point","coordinates":[2.882687131760604,48.59757681462309]},"properties":{"name":"Mormant","contributions":1,"per_cent":0.02,"insee":"77317"}},{"type":"Feature","geometry":{"type":"Point","coordinates":[1.5056631649776588,48.44709322399694]},"properties":{"name":"Chartres","contributions":395,"per_cent":1.028,"insee":"28085"}},{"type":"Feature","geometry":{"type":"Point","coordinates":[-2.0756240155256527,47.712200336064626]},"properties":{"name":"Bains-sur-Oust","contributions":9,"per_cent":0.258,"insee":"35013"}},{"type":"Feature","geometry":{"type":"Point","coordinates":[1.6022052552985655,50.664987988775664]},"properties":{"name":"Saint-\u00c9tienne-au-Mont","contributions":2,"per_cent":0.039,"insee":"62746"}},{"type":"Feature","geometry":{"type":"Point","coordinates":[4.708823101684293,44.431908490754815]},"properties":{"name":"Donz\u00e8re","contributions":28,"per_cent":0.476,"insee":"26116"}},{"type":"Feature","geometry":{"type":"Point","coordinates":[5.957850421389278,49.45846673944113]},"properties":{"name":"Audun-le-Tiche","contributions":17,"per_cent":0.244,"insee":"57038"}},{"type":"Feature","geometry":{"type":"Point","coordinates":[5.881250252480086,47.10247732570311]},"properties":{"name":"Quingey","contributions":17,"per_cent":1.185,"insee":"25475"}},{"type":"Feature","geometry":{"type":"Point","coordinates":[-0.5284852854252771,49.33376569253279]},"properties":{"name":"Ver-sur-Mer","contributions":1,"per_cent":0.061,"insee":"14739"}},{"type":"Feature","geometry":{"type":"Point","coordinates":[-0.2815166258288754,47.84437328842867]},"properties":{"name":"Solesmes","contributions":2,"per_cent":0.166,"insee":"72336"}},{"type":"Feature","geometry":{"type":"Point","coordinates":[6.900402753936032,48.80830974252696]},"properties":{"name":"Belles-For\u00eats","contributions":1,"per_cent":0.417,"insee":"57086"}},{"type":"Feature","geometry":{"type":"Point","coordinates":[-0.5520560594424332,45.73398370537807]},