Depcom	affichage	atteinte cible	Rep_hab graph	Rep_hab	Reste (num)	Nom Com Dep	Nom Commune	Latitude	Longitude	cible	nb rep 2019 cyclistes	Number of Records	Population	Unité affichage
98818	3.692732622	0.369273262	3.692732622	3.692732622	0	Nouméa-98	Nouméa	-22.3501	166.8988	999.26	316	369	99926	réponses par habitant
98817	0.073651261	0.007365126	0.073651261	0.073651261	50	Le Mont-Dore-98	Le Mont-Dore			271.55	0	2	27155	réponses par habitant
98805	0.282912109	0.028291211	0.282912109	0.282912109	42	Dumbéa-98	Dumbéa	-22.1676665	166.4580117	318.12	8	9	31812	réponses par habitant
97611	0.419991600	0.041999160	0.419991600	0.419991600	48	Mamoudzou-97	Mamoudzou	-12.789997959	45.193245603	71.43	2	3	7143	réponses par habitant
97423	0.2	0.014062720	0.2	0.140627197	49	Les Trois-Bassins-97	Les Trois-Bassins		55.329752287	71.11	1	1	7111	réponses par habitant
97422	0.168212932	0.016821293	0.168212932	0.168212932	39	Le Tampon-97	Le Tampon		55.558487527	772.83	11	13	77283	réponses par habitant
97420	0.129176714	0.012917671	0.129176714	0.129176714	48	Sainte-Suzanne-97	Sainte-Suzanne	-20.945734052	55.592779082	232.24	2	3	23224	réponses par habitant
97419	0.2	0.015337423	0.2	0.153374233	49	Sainte-Rose-97	Sainte-Rose		55.754522472	65.2	1	1	6520	réponses par habitant
97418	0.422195416	0.042219542	0.422195416	0.422195416	36	Sainte-Marie-97	Sainte-Marie	-20.947058851	55.530355586	331.6	14	14	33160	réponses par habitant
97416	0.926706982	0.092670698	0.926706982	0.926706982	0	Saint-Pierre-97	Saint-Pierre	-21.312324243	55.493615516	841.69	70	78	84169	réponses par habitant
97415	0.995430500	0.099543050	0.995430500	0.995430500	0	Saint-Paul-97	Saint-Paul	-21.044531752	55.322333430	1054.82	90	105	105482	réponses par habitant
97414	0.075159714	0.007515971	0.075159714	0.075159714	46	Saint-Louis-97	Saint-Louis		55.421338869	532.2	4	4	53220	réponses par habitant
97413	0.237409858	0.023740986	0.237409858	0.237409858	44	Saint-Leu-97	Saint-Leu		55.333133578	336.97	6	8	33697	réponses par habitant
97412	0.159451487	0.015945149	0.159451487	0.159451487	45	Saint-Joseph-97	Saint-Joseph	-21.306355044	55.642068651	376.29	5	6	37629	réponses par habitant
97411	1.122228231	0.112222823	1.122228231	1.122228231	0	Saint-Denis-97	Saint-Denis	-20.932970819	55.446867167	1479.2	143	166	147920	réponses par habitant
97410	0.131089088	0.013108909	0.131089088	0.131089088	46	Saint-Benoît-97	Saint-Benoît	-21.091866280	55.649416859	381.42	4	5	38142	réponses par habitant
97409	0.071906234	0.007190623	0.071906234	0.071906234	46	Saint-André-97	Saint-André		55.642732879	556.28	4	4	55628	réponses par habitant
97408	0.272950596	0.027295060	0.272950596	0.272950596	45	La Possession-97	La Possession		55.397508499	329.73	5	9	32973	réponses par habitant
97407	0.086182132	0.008618213	0.086182132	0.086182132	47	Le Port-97	Le Port		55.305326715	348.1	3	3	34810	réponses par habitant
97406	0.314218382	0.031421838	0.314218382	0.314218382	48	La Plaine-des-Palmistes-97	La Plaine-des-Palmistes		55.644526896	63.65	2	2	6365	réponses par habitant
97405	0.2	0.008172605	0.2	0.081726054	49	Petite-Île-97	Petite-Île		55.568705084	122.36	1	1	12236	réponses par habitant
97404	0.140548138	0.014054814	0.140548138	0.140548138	48	L'Étang-Salé-97	L'Étang-Salé		55.366792780	142.3	2	2	14230	réponses par habitant
97403	0.290107340	0.029010734	0.290107340	0.290107340	48	Entre-Deux-97	Entre-Deux		55.492299279	68.94	2	2	6894	réponses par habitant
97401	0.523058147	0.052305815	0.523058147	0.523058147	44	Les Avirons-97	Les Avirons	-21.208999429	55.359148545	114.71	6	6	11471	réponses par habitant
97311	0.342473572	0.034247357	0.342473572	0.342473572	35	Saint-Laurent-du-Maroni-97	Saint-Laurent-du-Maroni	4.964743986	-53.983211366	437.99	15	15	43799	réponses par habitant
97309	0.661195597	0.066119560	0.661195597	0.661195597	34	Remire-Montjoly-97	Remire-Montjoly	4.884371286	-52.278840269	257.11	16	17	25711	réponses par habitant
97307	0.123304562	0.012330456	0.123304562	0.123304562	48	Matoury-97	Matoury	4.831793510	-52.343560981	324.4	2	4	32440	réponses par habitant
97305	0.156201187	0.015620119	0.156201187	0.156201187	49	Macouria-97	Macouria	4.982384622	-52.508439243	128.04	1	2	12804	réponses par habitant
97304	0.791795491	0.079179549	0.791795491	0.791795491	34	Kourou-97	Kourou	4.933606770	-52.766331442	265.22	16	21	26522	réponses par habitant
97302	0.742819412	0.074281941	0.742819412	0.742819412	9	Cayenne-97	Cayenne	5.021737428	-52.501251111	605.8	41	45	60580	réponses par habitant
97230	0.159846547	0.015984655	0.159846547	0.159846547	50	La Trinité-97	La Trinité	14.738636244	-60.949630689	125.12	0	2	12512	réponses par habitant
97229	0.100462126	0.010046213	0.100462126	0.100462126	50	Schœlcher-97	Schoelcher	14.644921766	-61.100038609	199.08	0	2	19908	réponses par habitant
97222	0.2	0.004300705	0.2	0.043007053	50	Le Robert-97	Le Robert	14.675210940	-60.942951876	232.52	0	1	23252	réponses par habitant
97221	0.2	0.008265146	0.2	0.082651459	50	Rivière-Salée-97	Rivière-Salée	14.526119270	-60.965212946	120.99	0	1	12099	réponses par habitant
97213	0.124455507	0.012445551	0.124455507	0.124455507	49	Le Lamentin-97	Le Lamentin	14.624760010	-60.993354981	401.75	1	5	40175	réponses par habitant
97210	0.174703005	0.017470300	0.174703005	0.174703005	50	Le François-97	Le François	14.606056472	-60.905715821	171.72	0	3	17172	réponses par habitant
97209	0.148117062	0.014811706	0.148117062	0.148117062	45	Fort-de-France-97	Fort-de-France	14.641111439	-61.069188924	810.17	5	12	81017	réponses par habitant
97207	0.2	0.005747126	0.2	0.057471264	50	Ducos-97	Ducos	14.577785138	-60.967670444	174	0	1	17400	réponses par habitant
97202	0.2	0.02	0.2	0.275254611	50	Les Anses-d'Arlet-97	Les Anses-d'Arlet	14.499359111	-61.072099398	50	0	1	3633	réponses par habitant
97120	0.2	0.006236358	0.2	0.062363580	49	Pointe-à-Pitre-97	Pointe-à-Pitre	16.238600696	-61.535718088	160.35	1	1	16035	réponses par habitant
97118	0.2	0.004130354	0.2	0.041303540	50	Petit-Bourg-97	Petit-Bourg	16.171606379	-61.657244347	242.11	0	1	24211	réponses par habitant
97117	0.2	0.004457321	0.2	0.044573211	50	Le Moule-97	Le Moule	16.320459568	-61.371898519	224.35	0	1	22435	réponses par habitant
97116	0.2	0.005784359	0.2	0.057843591	50	Morne-à-l'Eau-97	Morne-à-l'Eau	16.324021571	-61.470417696	172.88	0	1	17288	réponses par habitant
97113	0.225005625	0.022500563	0.225005625	0.225005625	46	Le Gosier-97	Le Gosier	16.225219203	-61.469877665	266.66	4	6	26666	réponses par habitant
97105	0.2	0.009778995	0.2	0.097789947	50	Basse-Terre-97	Basse-Terre	16.000464566	-61.728103296	102.26	0	1	10226	réponses par habitant
97103	0.291564079	0.029156408	0.291564079	0.291564079	47	Baie-Mahault-97	Baie-Mahault	16.251171116	-61.592935588	308.68	3	9	30868	réponses par habitant
97101	0.036859565	0.003685957	0.036859565	0.036859565	49	Les Abymes-97	Les Abymes	16.272779403	-61.501704497	542.6	1	2	54260	réponses par habitant
95680	0.146805153	0.014680515	0.146805153	0.146805153	47	Villiers-le-Bel-95	Villiers-le-Bel	49.008449416	2.403856040	272.47	3	4	27247	réponses par habitant
95652	0.2	0.019275251	0.2	0.192752506	49	Viarmes-95	Viarmes	49.123110793	2.377996760	51.88	1	1	5188	réponses par habitant
95637	1.353179973	0.135317997	1.353179973	1.353179973	29	Vauréal-95	Vauréal	49.029507338	2.024466191	162.58	21	22	16258	réponses par habitant
95628	0.2	0.02	0.2	0.831946755	49	Valmondois-95	Valmondois	49.097650072	2.180163195	50	1	1	1202	réponses par habitant
95625	0.2	0.02	0.2	0.766283525	49	Us-95	Us	49.104807683	1.957646101	50	1	1	1305	réponses par habitant
95612	0.2	0.02	0.2	0.225886605	50	Le Thillay-95	Le Thillay	49.004277001	2.469275250	50	0	1	4427	réponses par habitant
95607	1.064800730	0.106480073	1.064800730	1.064800730	24	Taverny-95	Taverny	49.026731620	2.221160672	262.96	26	28	26296	réponses par habitant
95604	0.2	0.02	0.2	0.241021933	49	Survilliers-95	Survilliers	49.105973622	2.544107428	50	1	1	4149	réponses par habitant
95598	1.607004322	0.160700432	1.607004322	1.607004322	21	Soisy-sous-Montmorency-95	Soisy-sous-Montmorency	48.988407788	2.300499783	180.46	29	29	18046	réponses par habitant
95585	0.103840363	0.010384036	0.103840363	0.103840363	44	Sarcelles-95	Sarcelles	48.990225044	2.381602727	577.81	6	6	57781	réponses par habitant
95582	1.394279685	0.139427968	1.394279685	1.394279685	18	Sannois-95	Sannois	48.971777311	2.252995141	265.37	32	37	26537	réponses par habitant
95580	0.2	0.02	0.2	0.418935903	49	Saint-Witz-95	Saint-Witz	49.085783724	2.552276150	50	1	1	2387	réponses par habitant
95574	2.499652826	0.249965283	2.499652826	2.499652826	34	Saint-Prix-95	Saint-Prix	49.020822482	2.270150665	72.01	16	18	7201	réponses par habitant
95572	0.747291070	0.074729107	0.747291070	0.747291070	33	Saint-Ouen-l'Aumône-95	Saint-Ouen-l'Aumône	49.044168345	2.128613037	240.87	17	18	24087	réponses par habitant
95563	1.923446817	0.192344682	1.923446817	1.923446817	22	Saint-Leu-la-Forêt-95	Saint-Leu-la-Forêt	49.020216481	2.246760442	155.97	28	30	15597	réponses par habitant
95555	1.968882059	0.196888206	1.968882059	1.968882059	12	Saint-Gratien-95	Saint-Gratien	48.968972495	2.285180034	208.24	38	41	20824	réponses par habitant
95543	0.2	0.02	0.2	4.065040650	49	Saint-Cyr-en-Arthies-95	Saint-Cyr-en-Arthies	49.059130605	1.741957905	50	1	1	246	réponses par habitant
95539	0.607492406	0.060749241	0.607492406	0.607492406	42	Saint-Brice-sous-Forêt-95	Saint-Brice-sous-Forêt	49.001903362	2.350306890	148.15	8	9	14815	réponses par habitant
95527	0.2	0.02	0.2	0.344946533	49	Roissy-en-France-95	Roissy-en-France	49.00660444	2.514177435	50	1	1	2899	réponses par habitant
95510	0.2	0.02	0.2	1.838235294	49	Puiseux-Pontoise-95	Puiseux-Pontoise	49.063764209	2.015867500	50	1	1	544	réponses par habitant
95500	2.280873249	0.228087325	2.280873249	2.280873249	0	Pontoise-95	Pontoise	49.051373785	2.094879289	306.9	64	70	30690	réponses par habitant
95491	0.2	0.012150668	0.2	0.121506683	49	Le Plessis-Bouchard-95	Le Plessis-Bouchard	49.003279348	2.234019996	82.3	1	1	8230	réponses par habitant
95488	0.367286974	0.036728697	0.367286974	0.367286974	47	Pierrelaye-95	Pierrelaye	49.019444402	2.161055578	81.68	3	3	8168	réponses par habitant
95487	0.236873273	0.023687327	0.236873273	0.236873273	48	Persan-95	Persan	49.149744171	2.269783932	126.65	2	3	12665	réponses par habitant
95480	0.358230342	0.035823034	0.358230342	0.358230342	48	Parmain-95	Parmain	49.122869909	2.201277887	55.83	2	2	5583	réponses par habitant
95476	0.474242694	0.047424269	0.474242694	0.474242694	42	Osny-95	Osny	49.067658992	2.063116785	168.69	8	8	16869	réponses par habitant
95450	1.462701121	0.06	1.462701121	1.462701121	47	Neuville-sur-Oise-95	Neuville-sur-Oise	49.017334400	2.062766561	50	3	3	2051	réponses par habitant
95446	1.097694841	0.04	1.097694841	1.097694841	48	Nesles-la-Vallée-95	Nesles-la-Vallée	49.126040390	2.171762673	50	2	2	1822	réponses par habitant
95436	0.2	0.02	0.2	0.644329897	50	Mours-95	Mours	49.130394749	2.264150889	50	0	1	1552	réponses par habitant
95430	1.762114537	0.12	1.762114537	1.762114537	44	Montsoult-95	Montsoult	49.071583025	2.303814805	50	6	6	3405	réponses par habitant
95428	3.821596682	0.382159668	3.821596682	3.821596682	0	Montmorency-95	Montmorency	48.991864336	2.321197978	214.57	55	82	21457	réponses par habitant
95427	0.882223202	0.088222320	0.882223202	0.882223202	44	Montmagny-95	Montmagny	48.969919584	2.346075318	136.02	6	12	13602	réponses par habitant
95426	3.675242232	0.22	3.675242232	3.675242232	39	Montlignon-95	Montlignon	49.014168201	2.289004889	50	11	11	2993	réponses par habitant
95424	0.238925790	0.023892579	0.238925790	0.238925790	45	Montigny-lès-Cormeilles-95	Montigny-lès-Cormeilles	48.993803556	2.193517930	209.27	5	5	20927	réponses par habitant
95409	1.444043321	0.04	1.444043321	1.444043321	48	Moisselles-95	Moisselles	49.045959873	2.337449393	50	2	2	1385	réponses par habitant
95394	0.308896211	0.030889621	0.308896211	0.308896211	47	Méry-sur-Oise-95	Méry-sur-Oise	49.054842257	2.173972542	97.12	3	3	9712	réponses par habitant
95392	1.186005139	0.118600514	1.186005139	1.186005139	44	Mériel-95	Mériel	49.077158726	2.213250514	50.59	6	6	5059	réponses par habitant
95388	1.070090958	0.107009096	1.070090958	1.070090958	45	Menucourt-95	Menucourt	49.027542218	1.974684821	56.07	5	6	5607	réponses par habitant
95369	1.028806584	0.06	1.028806584	1.028806584	48	Margency-95	Margency	49.001488847	2.289070090	50	2	3	2916	réponses par habitant
95355	0.360036004	0.036003600	0.360036004	0.360036004	49	Magny-en-Vexin-95	Magny-en-Vexin	49.158617564	1.810393221	55.55	1	2	5555	réponses par habitant
95352	0.2	0.02	0.2	0.219635405	50	Luzarches-95	Luzarches	49.115121112	2.440826410	50	0	1	4553	réponses par habitant
95351	0.194476857	0.019447686	0.194476857	0.194476857	48	Louvres-95	Louvres	49.042297770	2.503584914	102.84	2	2	10284	réponses par habitant
95341	0.2	0.02	0.2	2.583979328	49	Livilliers-95	Livilliers	49.100457423	2.094623911	50	1	1	387	réponses par habitant
95323	0.810271753	0.081027175	0.810271753	0.810271753	38	Jouy-le-Moutier-95	Jouy-le-Moutier	49.011362506	2.034083179	160.44	12	13	16044	réponses par habitant
95316	0.2	0.02	0.2	3.875968992	49	Jagny-sous-Bois-95	Jagny-sous-Bois	49.081427808	2.443995114	50	1	1	258	réponses par habitant
95313	0.403388463	0.040338846	0.403388463	0.403388463	45	L'Isle-Adam-95	L'Isle-Adam	49.107225592	2.234362418	123.95	5	5	12395	réponses par habitant
95306	3.268423588	0.326842359	3.268423588	3.268423588	0	Herblay-95	Herblay-sur-Seine	49.000700276	2.149676808	290.66	83	95	29066	réponses par habitant
95288	5.961935336	0.596193534	5.961935336	5.961935336	21	Groslay-95	Groslay	48.984970108	2.350490578	87.22	29	52	8722	réponses par habitant
95280	0.2	0.003231227	0.2	0.032312266	50	Goussainville-95	Goussainville	49.024343017	2.466198489	309.48	0	1	30948	réponses par habitant
95277	0.113912515	0.011391252	0.113912515	0.113912515	47	Gonesse-95	Gonesse	48.986490305	2.456989963	263.36	3	3	26336	réponses par habitant
95268	0.070425842	0.007042584	0.070425842	0.070425842	48	Garges-lès-Gonesse-95	Garges-lès-Gonesse	48.970123127	2.405340385	425.98	2	3	42598	réponses par habitant
95257	0.856898029	0.08	0.856898029	0.856898029	46	La Frette-sur-Seine-95	La Frette-sur-Seine	48.974524472	2.177867775	50	4	4	4668	réponses par habitant
95256	0.2	0.02	0.2	0.299760192	49	Frépillon-95	Frépillon	49.050130691	2.204898991	50	1	1	3336	réponses par habitant
95252	0.332299513	0.033229951	0.332299513	0.332299513	40	Franconville-95	Franconville	48.988416110	2.223893206	361.12	10	12	36112	réponses par habitant
95250	0.2	0.010392850	0.2	0.103928497	49	Fosses-95	Fosses	49.100043797	2.499064954	96.22	1	1	9622	réponses par habitant
95229	0.614313505	0.061431350	0.614313505	0.614313505	44	Ézanville-95	Ézanville	49.038600379	2.362691203	97.67	6	6	9767	réponses par habitant
95219	2.301456444	0.230145644	2.301456444	2.301456444	0	Ermont-95	Ermont	48.98824217	2.256624437	291.12	59	67	29112	réponses par habitant
95218	1.295641932	0.129564193	1.295641932	1.295641932	28	Éragny-95	Éragny	49.020458750	2.101366358	169.8	22	22	16980	réponses par habitant
95210	3.258476442	0.325847644	3.258476442	3.258476442	18	Enghien-les-Bains-95	Enghien-les-Bains	48.97016048	2.304859554	113.55	32	37	11355	réponses par habitant
95203	5.882119153	0.588211915	5.882119153	5.882119153	0	Eaubonne-95	Eaubonne	48.990994016	2.278009255	251.61	137	148	25161	réponses par habitant
95199	3.765989221	0.376598922	3.765989221	3.765989221	9	Domont-95	Domont	49.029665568	2.322901037	154.01	41	58	15401	réponses par habitant
95197	2.912186380	0.291218638	2.912186380	2.912186380	0	Deuil-la-Barre-95	Deuil-la-Barre	48.971269017	2.326162901	223.2	59	65	22320	réponses par habitant
95183	1.489868892	0.148986889	1.489868892	1.489868892	41	Courdimanche-95	Courdimanche	49.040676793	1.999443592	67.12	9	10	6712	réponses par habitant
95176	0.877779636	0.087777964	0.877779636	0.877779636	30	Cormeilles-en-Parisis-95	Cormeilles-en-Parisis	48.968224968	2.199213495	239.24	20	21	23924	réponses par habitant
95149	1.218397807	0.08	1.218397807	1.218397807	47	Chaumontel-95	Chaumontel	49.128996297	2.436433300	50	3	4	3283	réponses par habitant
95134	0.397693378	0.039769338	0.397693378	0.397693378	48	Champagne-sur-Oise-95	Champagne-sur-Oise	49.142775912	2.228016806	50.29	2	2	5029	réponses par habitant
95127	1.801942965	0.180194296	1.801942965	1.801942965	0	Cergy-95	Cergy	49.040113157	2.050821237	638.2	107	115	63820	réponses par habitant
95116	0.2	0.02	0.2	0.232396003	50	Bruyères-sur-Oise-95	Bruyères-sur-Oise	49.161012529	2.328783006	50	0	1	4303	réponses par habitant
95091	0.322372663	0.032237266	0.322372663	0.322372663	48	Bouffémont-95	Bouffémont	49.04157253	2.298384580	62.04	2	2	6204	réponses par habitant
95063	4.210381005	0.421038100	4.210381005	4.210381005	0	Bezons-95	Bezons	48.925981013	2.211333878	289.76	104	122	28976	réponses par habitant
95060	0.566171267	0.056617127	0.566171267	0.566171267	46	Bessancourt-95	Bessancourt	49.037308265	2.198510007	70.65	4	4	7065	réponses par habitant
95058	0.2	0.02	0.2	0.371885459	50	Bernes-sur-Oise-95	Bernes-sur-Oise	49.165413332	2.301276337	50	0	1	2689	réponses par habitant
95052	0.312597687	0.031259769	0.312597687	0.312597687	48	Beaumont-sur-Oise-95	Beaumont-sur-Oise	49.140098106	2.300212672	95.97	2	3	9597	réponses par habitant
95051	0.690369348	0.069036935	0.690369348	0.690369348	44	Beauchamp-95	Beauchamp	49.014874601	2.192233348	86.91	6	6	8691	réponses par habitant
95042	1	0.04	1	1	48	Baillet-en-France-95	Baillet-en-France	49.058763445	2.302423902	50	2	2	2000	réponses par habitant
95039	0.431344357	0.043134436	0.431344357	0.431344357	47	Auvers-sur-Oise-95	Auvers-sur-Oise	49.080385858	2.154880709	69.55	3	3	6955	réponses par habitant
95019	0.2	0.006967185	0.2	0.069671846	50	Arnouville-95	Arnouville	48.985827023	2.417143708	143.53	0	1	14353	réponses par habitant
95018	1.593221566	0.159322157	1.593221566	1.593221566	0	Argenteuil-95	Argenteuil	48.951134463	2.241040950	1104.68	158	176	110468	réponses par habitant
95014	0.768049155	0.04	0.768049155	0.768049155	48	Andilly-95	Andilly	49.008408805	2.302773358	50	2	2	2604	réponses par habitant
95002	0.2	0.02	0.2	0.870322019	49	Ableiges-95	Ableiges	49.085772994	1.974865246	50	1	1	1149	réponses par habitant
94081	1.229044256	0.122904426	1.229044256	1.229044256	0	Vitry-sur-Seine-94	Vitry-sur-Seine	48.788282831	2.394126805	927.55	103	114	92755	réponses par habitant
94080	4.613563878	0.461356388	4.613563878	4.613563878	0	Vincennes-94	Vincennes	48.847373205	2.437986507	498.53	218	230	49853	réponses par habitant
94079	1.026483268	0.102648327	1.026483268	1.026483268	28	Villiers-sur-Marne-94	Villiers-sur-Marne	48.825958617	2.545204833	292.26	22	30	29226	réponses par habitant
94078	0.273008554	0.027300855	0.273008554	0.273008554	42	Villeneuve-Saint-Georges-94	Villeneuve-Saint-Georges	48.741380964	2.448998846	329.66	8	9	32966	réponses par habitant
94077	0.475714761	0.047571476	0.475714761	0.475714761	41	Villeneuve-le-Roi-94	Villeneuve-le-Roi	48.732091458	2.410374201	210.21	9	10	21021	réponses par habitant
94076	1.946717618	0.194671762	1.946717618	1.946717618	0	Villejuif-94	Villejuif	48.792854727	2.360061032	554.78	97	108	55478	réponses par habitant
94075	2.136752137	0.213675214	2.136752137	2.136752137	30	Villecresnes-94	Villecresnes	48.720869249	2.531577414	98.28	20	21	9828	réponses par habitant
94074	0.134607619	0.013460762	0.134607619	0.134607619	48	Valenton-94	Valenton	48.752872402	2.461294796	148.58	2	2	14858	réponses par habitant
94073	2.240915673	0.224091567	2.240915673	2.240915673	0	Thiais-94	Thiais	48.760784193	2.385377295	290.06	54	65	29006	réponses par habitant
94071	2.207085506	0.220708551	2.207085506	2.207085506	0	Sucy-en-Brie-94	Sucy-en-Brie	48.765645659	2.533056080	262.79	52	58	26279	réponses par habitant
94070	3.236245955	0.24	3.236245955	3.236245955	41	Santeny-94	Santeny	48.735617714	2.576374802	50	9	12	3708	réponses par habitant
94069	1.397428731	0.139742873	1.397428731	1.397428731	30	Saint-Maurice-94	Saint-Maurice	48.818492137	2.437450134	143.12	20	20	14312	réponses par habitant
94068	4.206000561	0.420600056	4.206000561	4.206000561	0	Saint-Maur-des-Fossés-94	Saint-Maur-des-Fossés	48.799067780	2.493864505	748.93	293	315	74893	réponses par habitant
94067	3.915357881	0.391535788	3.915357881	3.915357881	0	Saint-Mandé-94	Saint-Mandé	48.842440243	2.419219109	227.31	81	89	22731	réponses par habitant
94065	2.317290553	0.231729055	2.317290553	2.317290553	37	Rungis-94	Rungis	48.749482150	2.352818328	56.1	13	13	5610	réponses par habitant
94060	0.506970849	0.050697085	0.506970849	0.506970849	44	La Queue-en-Brie-94	La Queue-en-Brie	48.777586610	2.583855776	118.35	6	6	11835	réponses par habitant
94059	0.690369348	0.069036935	0.690369348	0.690369348	39	Le Plessis-Trévise-94	Le Plessis-Trévise	48.806015458	2.576198469	202.79	11	14	20279	réponses par habitant
94058	2.282901954	0.228290195	2.282901954	2.282901954	0	Le Perreux-sur-Marne-94	Le Perreux-sur-Marne	48.842395238	2.504068486	337.29	73	77	33729	réponses par habitant
94056	8	1.26	8	23.666416228	0	Périgny-94	Périgny	48.696835963	2.561679404	50	61	63	2662	réponses par habitant
94055	0.194420142	0.019442014	0.194420142	0.194420142	48	Ormesson-sur-Marne-94	Ormesson-sur-Marne	48.785456274	2.539242143	102.87	2	2	10287	réponses par habitant
94054	0.384977329	0.038497733	0.384977329	0.384977329	43	Orly-94	Orly	48.742932007	2.394682970	233.78	7	9	23378	réponses par habitant
94053	1.068376068	0.1	1.068376068	1.068376068	45	Noiseau-94	Noiseau	48.774315467	2.555423754	50	5	5	4680	réponses par habitant
94052	2.848467775	0.284846777	2.848467775	2.848467775	0	Nogent-sur-Marne-94	Nogent-sur-Marne	48.836663471	2.481667415	319.47	83	91	31947	réponses par habitant
94048	8	1.56	8	16.062602965	0	Marolles-en-Brie-94	Marolles-en-Brie	48.739478062	2.554913385	50	69	78	4856	réponses par habitant
94047	4.252604720	0.4	4.252604720	4.252604720	39	Mandres-les-Roses-94	Mandres-les-Roses	48.705888017	2.548307416	50	11	20	4703	réponses par habitant
94046	2.297021107	0.229702111	2.297021107	2.297021107	0	Maisons-Alfort-94	Maisons-Alfort	48.806392327	2.438182489	552.89	123	127	55289	réponses par habitant
94044	2.134591619	0.213459162	2.134591619	2.134591619	0	Limeil-Brévannes-94	Limeil-Brévannes	48.745035778	2.489361844	267.03	54	57	26703	réponses par habitant
94043	3.083979124	0.308397912	3.083979124	3.083979124	0	Le Kremlin-Bicêtre-94	Le Kremlin-Bicêtre	48.809220102	2.356579652	252.92	73	78	25292	réponses par habitant
94042	4.409264768	0.440926477	4.409264768	4.409264768	0	Joinville-le-Pont-94	Joinville-le-Pont	48.819368322	2.470449778	188.24	80	83	18824	réponses par habitant
94041	3.110036037	0.311003604	3.110036037	3.110036037	0	Ivry-sur-Seine-94	Ivry-sur-Seine	48.812806381	2.387780236	607.71	178	189	60771	réponses par habitant
94038	2.532944307	0.253294431	2.532944307	2.532944307	0	L'Haÿ-les-Roses-94	L'Haÿ-les-Roses	48.776320784	2.337729156	311.89	67	79	31189	réponses par habitant
94037	3.325306731	0.332530673	3.325306731	3.325306731	0	Gentilly-94	Gentilly	48.813204439	2.344206597	174.42	57	58	17442	réponses par habitant
94034	3.319229647	0.331922965	3.319229647	3.319229647	0	Fresnes-94	Fresnes	48.757134302	2.326128397	274.16	75	91	27416	réponses par habitant
94033	2.283617850	0.228361785	2.283617850	2.283617850	0	Fontenay-sous-Bois-94	Fontenay-sous-Bois	48.851104638	2.473954098	534.24	120	122	53424	réponses par habitant
94028	1.051548237	0.105154824	1.051548237	1.051548237	0	Créteil-94	Créteil	48.783740184	2.454635304	893.92	88	94	89392	réponses par habitant
94022	1.597300337	0.159730034	1.597300337	1.597300337	0	Choisy-le-Roi-94	Choisy-le-Roi	48.764315118	2.417425182	444.5	59	71	44450	réponses par habitant
94021	0.620251202	0.062025120	0.620251202	0.620251202	38	Chevilly-Larue-94	Chevilly-Larue	48.766848001	2.353066112	193.47	12	12	19347	réponses par habitant
94019	0.597956077	0.059795608	0.597956077	0.597956077	41	Chennevières-sur-Marne-94	Chennevières-sur-Marne	48.797650288	2.541576301	183.96	9	11	18396	réponses par habitant
94018	1.967213115	0.196721311	1.967213115	1.967213115	0	Charenton-le-Pont-94	Charenton-le-Pont	48.822808498	2.407609155	305	56	60	30500	réponses par habitant
94017	1.446860184	0.144686018	1.446860184	1.446860184	0	Champigny-sur-Marne-94	Champigny-sur-Marne	48.817254364	2.517098153	774.09	105	112	77409	réponses par habitant
94016	3.806938559	0.380693856	3.806938559	3.806938559	0	Cachan-94	Cachan	48.791612165	2.331533132	302.08	109	115	30208	réponses par habitant
94015	0.897290184	0.089729018	0.897290184	0.897290184	35	Bry-sur-Marne-94	Bry-sur-Marne	48.838409566	2.523196576	167.17	15	15	16717	réponses par habitant
94011	0.401100160	0.040110016	0.401100160	0.401100160	43	Bonneuil-sur-Marne-94	Bonneuil-sur-Marne	48.773362010	2.487993105	174.52	7	7	17452	réponses par habitant
94004	1.517834556	0.151783456	1.517834556	1.517834556	27	Boissy-Saint-Léger-94	Boissy-Saint-Léger	48.747035992	2.525280490	158.12	23	24	15812	réponses par habitant
94003	4.219409283	0.421940928	4.219409283	4.219409283	0	Arcueil-94	Arcueil	48.805880360	2.333510250	215.67	87	91	21567	réponses par habitant
94002	3.964817937	0.396481794	3.964817937	3.964817937	0	Alfortville-94	Alfortville	48.796084386	2.421245932	438.86	163	174	43886	réponses par habitant
94001	0.2	0.017286085	0.2	0.172860847	49	Ablon-sur-Seine-94	Ablon-sur-Seine	48.723840946	2.421176293	57.85	1	1	5785	réponses par habitant
93079	0.152195419	0.015219542	0.152195419	0.152195419	49	Villetaneuse-93	Villetaneuse	48.957297650	2.345066337	131.41	1	2	13141	réponses par habitant
93078	1.091226539	0.109122654	1.091226539	1.091226539	21	Villepinte-93	Villepinte	48.959020254	2.536306342	366.56	29	40	36656	réponses par habitant
93077	1.996605770	0.199660577	1.996605770	1.996605770	0	Villemomble-93	Villemomble	48.884837002	2.508934060	300.51	52	60	30051	réponses par habitant
93073	1.036675913	0.103667591	1.036675913	1.036675913	17	Tremblay-en-France-93	Tremblay-en-France	48.978430412	2.554685015	356.91	33	37	35691	réponses par habitant
93072	0.075723156	0.007572316	0.075723156	0.075723156	47	Stains-93	Stains	48.956777570	2.385449563	396.18	3	3	39618	réponses par habitant
93071	0.138260681	0.013826068	0.138260681	0.138260681	44	Sevran-93	Sevran	48.938607015	2.531240576	506.29	6	7	50629	réponses par habitant
93070	8	0.984616624	8	9.846166237	0	Saint-Ouen-93	Saint-Ouen-sur-Seine	48.909806575	2.332570422	496.64	432	489	49664	réponses par habitant
93066	2.020583006	0.202058301	2.020583006	2.020583006	0	Saint-Denis-93	Saint-Denis	48.929565045	2.359242997	1113.54	210	225	111354	réponses par habitant
93064	3.831670741	0.383167074	3.831670741	3.831670741	0	Rosny-sous-Bois-93	Rosny-sous-Bois	48.874576377	2.486340459	454.11	147	174	45411	réponses par habitant
93063	3.394945304	0.339494530	3.394945304	3.394945304	0	Romainville-93	Romainville	48.885211897	2.437678842	265.1	72	90	26510	réponses par habitant
93062	1.034411420	0.103441142	1.034411420	1.034411420	38	Le Raincy-93	Le Raincy	48.896744758	2.519736640	145.01	12	15	14501	réponses par habitant
93061	5.905511811	0.590551181	5.905511811	5.905511811	0	Le Pré-Saint-Gervais-93	Le Pré-Saint-Gervais	48.884673488	2.405422330	177.8	100	105	17780	réponses par habitant
93059	0.303971899	0.030397190	0.303971899	0.303971899	41	Pierrefitte-sur-Seine-93	Pierrefitte-sur-Seine	48.960983336	2.363281254	296.08	9	9	29608	réponses par habitant
93057	1.012871914	0.101287191	1.012871914	1.012871914	29	Les Pavillons-sous-Bois-93	Les Pavillons-sous-Bois	48.908206025	2.502974483	236.95	21	24	23695	réponses par habitant
93055	3.523544505	0.352354451	3.523544505	3.523544505	0	Pantin-93	Pantin	48.898309388	2.408721475	553.42	188	195	55342	réponses par habitant
93053	2.779245240	0.277924524	2.779245240	2.779245240	0	Noisy-le-Sec-93	Noisy-le-Sec	48.891322463	2.459136474	435.37	99	121	43537	réponses par habitant
93051	1.140131115	0.114013112	1.140131115	1.140131115	0	Noisy-le-Grand-93	Noisy-le-Grand	48.836182540	2.564437368	666.59	67	76	66659	réponses par habitant
93050	0.691941762	0.069194176	0.691941762	0.691941762	26	Neuilly-sur-Marne-93	Neuilly-sur-Marne	48.862457858	2.540002888	346.85	24	24	34685	réponses par habitant
93049	1.888841668	0.188884167	1.888841668	1.888841668	14	Neuilly-Plaisance-93	Neuilly-Plaisance	48.864328785	2.510402499	211.77	36	40	21177	réponses par habitant
93048	4.188114610	0.418811461	4.188114610	4.188114610	0	Montreuil-93	Montreuil	48.863317505	2.448162119	1084.02	443	454	108402	réponses par habitant
93047	0.153344834	0.015334483	0.153344834	0.153344834	47	Montfermeil-93	Montfermeil	48.898261668	2.567143548	260.85	3	4	26085	réponses par habitant
93046	0.584716413	0.058471641	0.584716413	0.584716413	24	Livry-Gargan-93	Livry-Gargan	48.919763321	2.534865923	444.66	26	26	44466	réponses par habitant
93045	2.913930327	0.291393033	2.913930327	2.913930327	0	Les Lilas-93	Les Lilas	48.881920894	2.419667821	229.93	61	67	22993	réponses par habitant
93039	8	0.937580272	8	9.375802723	0	L'Île-Saint-Denis-93	L'Île-Saint-Denis	48.939569377	2.325452528	77.86	66	73	7786	réponses par habitant
93033	0.874508089	0.087450809	0.874508089	0.874508089	44	Gournay-sur-Marne-93	Gournay-sur-Marne	48.860581790	2.575433138	68.61	6	6	6861	réponses par habitant
93032	2.528864821	0.252886482	2.528864821	2.528864821	0	Gagny-93	Gagny	48.882076312	2.544948476	391.48	62	99	39148	réponses par habitant
93031	0.557624161	0.055762416	0.557624161	0.557624161	22	Épinay-sur-Seine-93	Épinay-sur-Seine	48.955013206	2.314530432	555.93	28	31	55593	réponses par habitant
93029	0.540779006	0.054077901	0.540779006	0.540779006	23	Drancy-93	Drancy	48.923424626	2.444926887	702.69	27	38	70269	réponses par habitant
93027	0.423678946	0.042367895	0.423678946	0.423678946	33	La Courneuve-93	La Courneuve	48.932256955	2.399780648	424.85	17	18	42485	réponses par habitant
93014	0.067035361	0.006703536	0.067035361	0.067035361	48	Clichy-sous-Bois-93	Clichy-sous-Bois	48.907628511	2.546202227	298.35	2	2	29835	réponses par habitant
93013	0.970638195	0.097063819	0.970638195	0.970638195	39	Le Bourget-93	Le Bourget	48.936184746	2.428278556	164.84	11	16	16484	réponses par habitant
93010	0.281991991	0.028199199	0.281991991	0.281991991	36	Bondy-93	Bondy	48.902323453	2.483727694	531.93	14	15	53193	réponses par habitant
93008	0.286604123	0.028660412	0.286604123	0.286604123	35	Bobigny-93	Bobigny	48.907688244	2.438639827	523.37	15	15	52337	réponses par habitant
93007	0.2	0.001786129	0.2	0.017861289	50	Le Blanc-Mesnil-93	Le Blanc-Mesnil	48.939547554	2.461121485	559.87	0	1	55987	réponses par habitant
93006	4.015168414	0.401516841	4.015168414	4.015168414	0	Bagnolet-93	Bagnolet	48.869083631	2.422740967	358.64	134	144	35864	réponses par habitant
93005	0.909498949	0.090949895	0.909498949	0.909498949	0	Aulnay-sous-Bois-93	Aulnay-sous-Bois	48.945838437	2.493290417	846.62	73	77	84662	réponses par habitant
93001	2.626044317	0.262604432	2.626044317	2.626044317	0	Aubervilliers-93	Aubervilliers	48.912172263	2.384455138	860.61	209	226	86061	réponses par habitant
92078	1.278455955	0.127845596	1.278455955	1.278455955	23	Villeneuve-la-Garenne-92	Villeneuve-la-Garenne	48.936406192	2.324489959	242.48	27	31	24248	réponses par habitant
92077	5.821530976	0.582153098	5.821530976	5.821530976	0	Ville-d'Avray-92	Ville-d'Avray	48.821589559	2.177613115	115.09	60	67	11509	réponses par habitant
92076	1.274918869	0.127491887	1.274918869	1.274918869	42	Vaucresson-92	Vaucresson	48.841051590	2.160264552	86.28	8	11	8628	réponses par habitant
92075	3.591180062	0.359118006	3.591180062	3.591180062	0	Vanves-92	Vanves	48.821522709	2.287394908	278.46	93	100	27846	réponses par habitant
92073	2.817770465	0.281777046	2.817770465	2.817770465	0	Suresnes-92	Suresnes	48.869847913	2.219655176	486.2	122	137	48620	réponses par habitant
92072	4.181626188	0.418162619	4.181626188	4.181626188	0	Sèvres-92	Sèvres	48.821476509	2.210522974	236.75	87	99	23675	réponses par habitant
92071	6.571179219	0.657117922	6.571179219	6.571179219	0	Sceaux-92	Sceaux	48.776816369	2.295294145	194.79	122	128	19479	réponses par habitant
92064	3.841950121	0.384195012	3.841950121	3.841950121	0	Saint-Cloud-92	Saint-Cloud	48.842874103	2.208645703	301.93	101	116	30193	réponses par habitant
92063	6.087345738	0.608734574	6.087345738	6.087345738	0	Rueil-Malmaison-92	Rueil-Malmaison	48.869189737	2.177340631	781.95	440	476	78195	réponses par habitant
92062	4.007881420	0.400788142	4.007881420	4.007881420	0	Puteaux-92	Puteaux	48.883709497	2.238341783	446.62	157	179	44662	réponses par habitant
92060	2.928207248	0.292820725	2.928207248	2.928207248	0	Le Plessis-Robinson-92	Le Plessis-Robinson	48.780438364	2.260642860	290.28	79	85	29028	réponses par habitant
92051	4.341366788	0.434136679	4.341366788	4.341366788	0	Neuilly-sur-Seine-92	Neuilly-sur-Seine	48.885371969	2.266425847	605.8	230	263	60580	réponses par habitant
92050	2.662903944	0.266290394	2.662903944	2.662903944	0	Nanterre-92	Nanterre	48.896070128	2.206713464	942.58	235	251	94258	réponses par habitant
92049	5.394072627	0.539407263	5.394072627	5.394072627	0	Montrouge-92	Montrouge	48.815303216	2.316489214	491.28	251	265	49128	réponses par habitant
92048	3.154782916	0.315478292	3.154782916	3.154782916	0	Meudon-92	Meudon	48.803727580	2.226962878	453.28	133	143	45328	réponses par habitant
92047	3.305785124	0.12	3.305785124	3.305785124	44	Marnes-la-Coquette-92	Marnes-la-Coquette	48.830271264	2.166472617	50	6	6	1815	réponses par habitant
92046	8	1.070963867	8	10.709638675	0	Malakoff-92	Malakoff	48.816969598	2.296935995	299.73	315	321	29973	réponses par habitant
92044	3.561186222	0.356118622	3.561186222	3.561186222	0	Levallois-Perret-92	Levallois-Perret	48.895071672	2.286882681	634.62	204	226	63462	réponses par habitant
92040	2.500182762	0.250018276	2.500182762	2.500182762	0	Issy-les-Moulineaux-92	Issy-les-Moulineaux	48.82347434	2.264498233	683.95	167	171	68395	réponses par habitant
92036	1.757657600	0.175765760	1.757657600	1.757657600	0	Gennevilliers-92	Gennevilliers	48.934519055	2.293849880	466.53	76	82	46653	réponses par habitant
92035	2.837800875	0.283780088	2.837800875	2.837800875	0	La Garenne-Colombes-92	La Garenne-Colombes	48.906757711	2.244646041	292.48	76	83	29248	réponses par habitant
92033	3.170469343	0.317046934	3.170469343	3.170469343	7	Garches-92	Garches	48.845011355	2.186650078	176.63	43	56	17663	réponses par habitant
92032	8	0.816851184	8	8.168511838	0	Fontenay-aux-Roses-92	Fontenay-aux-Roses	48.789730131	2.287234936	241.17	168	197	24117	réponses par habitant
92026	3.548702888	0.354870289	3.548702888	3.548702888	0	Courbevoie-92	Courbevoie	48.898450477	2.255705873	817.2	259	290	81720	réponses par habitant
92025	3.373629463	0.337362946	3.373629463	3.373629463	0	Colombes-92	Colombes	48.922517915	2.246751606	853.68	275	288	85368	réponses par habitant
92024	5.249474225	0.524947422	5.249474225	5.249474225	0	Clichy-92	Clichy	48.903535914	2.305752305	603.87	291	317	60387	réponses par habitant
92023	5.235303076	0.523530308	5.235303076	5.235303076	0	Clamart-92	Clamart	48.796430679	2.254746529	525.28	255	275	52528	réponses par habitant
92022	6.150969393	0.615096939	6.150969393	6.150969393	0	Chaville-92	Chaville	48.807608356	2.192340611	203.22	105	125	20322	réponses par habitant
92020	7.748987194	0.774898719	7.748987194	7.748987194	0	Châtillon-92	Châtillon	48.803409176	2.287991319	367.79	264	285	36779	réponses par habitant
92019	3.907196511	0.390719651	3.907196511	3.907196511	0	Châtenay-Malabry-92	Châtenay-Malabry	48.768169020	2.262825985	330.16	118	129	33016	réponses par habitant
92014	4.919390190	0.491939019	4.919390190	4.919390190	0	Bourg-la-Reine-92	Bourg-la-Reine	48.779907363	2.316430108	205.31	98	101	20531	réponses par habitant
92012	3.451878474	0.345187847	3.451878474	3.451878474	0	Boulogne-Billancourt-92	Boulogne-Billancourt	48.836584314	2.239135991	1196.45	389	413	119645	réponses par habitant
92009	5.225435159	0.522543516	5.225435159	5.225435159	0	Bois-Colombes-92	Bois-Colombes	48.915336843	2.267385526	283.23	135	148	28323	réponses par habitant
92007	2.162814677	0.216281468	2.162814677	2.162814677	0	Bagneux-92	Bagneux	48.798322987	2.309899952	397.63	85	86	39763	réponses par habitant
92004	2.791574099	0.279157410	2.791574099	2.791574099	0	Asnières-sur-Seine-92	Asnières-sur-Seine	48.915353012	2.288038466	859.73	218	240	85973	réponses par habitant
92002	7.265712908	0.726571291	7.265712908	7.265712908	0	Antony-92	Antony	48.750341260	2.299326810	622.1	425	452	62210	réponses par habitant
91692	2.211677658	0.221167766	2.211677658	2.211677658	0	Les Ulis-91	Les Ulis	48.680321482	2.18518955	248.68	51	55	24868	réponses par habitant
91691	2.151283831	0.215128383	2.151283831	2.151283831	0	Yerres-91	Yerres	48.715721071	2.492730203	288.2	60	62	28820	réponses par habitant
91689	1.172791243	0.117279124	1.172791243	1.172791243	41	Wissous-91	Wissous	48.729450996	2.329032922	76.74	9	9	7674	réponses par habitant
91687	0.294358136	0.029435814	0.294358136	0.294358136	41	Viry-Châtillon-91	Viry-Châtillon	48.669616893	2.373743576	305.75	9	9	30575	réponses par habitant
91685	0.439174352	0.04	0.439174352	0.439174352	48	Villiers-sur-Orge-91	Villiers-sur-Orge	48.658419982	2.299501208	50	2	2	4554	réponses par habitant
91679	8	0.28	8	11.208967174	40	Villiers-le-Bâcle-91	Villiers-le-Bâcle	48.728808086	2.122147025	50	10	14	1249	réponses par habitant
91667	1.150747986	0.115074799	1.150747986	1.150747986	42	Villemoisson-sur-Orge-91	Villemoisson-sur-Orge	48.661310768	2.331088791	69.52	8	8	6952	réponses par habitant
91666	8	0.54	8	11.663066955	23	Villejust-91	Villejust	48.677738238	2.222942831	50	27	27	2315	réponses par habitant
91665	0.537995965	0.053799597	0.537995965	0.537995965	47	La Ville-du-Bois-91	La Ville-du-Bois	48.661019497	2.265034310	74.35	3	4	7435	réponses par habitant
91661	2.291825821	0.229182582	2.291825821	2.291825821	29	Villebon-sur-Yvette-91	Villebon-sur-Yvette	48.695677440	2.235051551	104.72	21	24	10472	réponses par habitant
91657	2.367545431	0.236754543	2.367545431	2.367545431	0	Vigneux-sur-Seine-91	Vigneux-sur-Seine	48.703744536	2.427932038	312.56	58	74	31256	réponses par habitant
91649	0.2	0.02	0.2	0.359841670	49	Vert-le-Petit-91	Vert-le-Petit	48.552025472	2.365985479	50	1	1	2779	réponses par habitant
91645	7.904626150	0.790462615	7.904626150	7.904626150	0	Verrières-le-Buisson-91	Verrières-le-Buisson	48.75044312	2.251712972	154.34	110	122	15434	réponses par habitant
91635	3.910068426	0.16	3.910068426	3.910068426	45	Vauhallan-91	Vauhallan	48.730799903	2.199052660	50	5	8	2046	réponses par habitant
91634	1.568627451	0.04	1.568627451	1.568627451	48	Vaugrigneuse-91	Vaugrigneuse	48.601334281	2.105414884	50	2	2	1275	réponses par habitant
91619	0.2	0.02	0.2	3.690036900	49	Torfou-91	Torfou	48.532049427	2.234472046	50	1	1	271	réponses par habitant
91617	0.520833333	0.04	0.520833333	0.520833333	49	Tigery-91	Tigery	48.644498844	2.519060380	50	1	2	3840	réponses par habitant
91600	0.565371025	0.056537102	0.565371025	0.565371025	46	Soisy-sur-Seine-91	Soisy-sur-Seine	48.660116386	2.462960116	70.75	4	4	7075	réponses par habitant
91589	0.798744044	0.079874404	0.798744044	0.798744044	26	Savigny-sur-Orge-91	Savigny-sur-Orge	48.684228392	2.348738622	363.07	24	29	36307	réponses par habitant
91587	6.956194773	0.695619477	6.956194773	6.956194773	27	Saulx-les-Chartreux-91	Saulx-les-Chartreux	48.685026471	2.266347492	53.19	23	37	5319	réponses par habitant
91579	0.653808434	0.04	0.653808434	0.653808434	48	Saint-Vrain-91	Saint-Vrain	48.537321048	2.322890784	50	2	2	3059	réponses par habitant
91577	0.350324050	0.035032405	0.350324050	0.350324050	48	Saintry-sur-Seine-91	Saintry-sur-Seine	48.593010736	2.494191927	57.09	2	2	5709	réponses par habitant
91573	0.460787024	0.046078702	0.460787024	0.460787024	45	Saint-Pierre-du-Perray-91	Saint-Pierre-du-Perray	48.605828260	2.516149267	108.51	5	5	10851	réponses par habitant
91570	3.020235578	0.302023558	3.020235578	3.020235578	0	Saint-Michel-sur-Orge-91	Saint-Michel-sur-Orge	48.632049600	2.311702778	198.66	53	60	19866	réponses par habitant
91552	0.2	0.009425959	0.2	0.094259591	49	Saint-Germain-lès-Arpajon-91	Saint-Germain-lès-Arpajon	48.598244460	2.264613685	106.09	1	1	10609	réponses par habitant
91549	0.808723054	0.080872305	0.808723054	0.808723054	23	Sainte-Geneviève-des-Bois-91	Sainte-Geneviève-des-Bois	48.641252380	2.330194179	358.59	27	29	35859	réponses par habitant
91540	0.2	0.019821606	0.2	0.198216056	49	Saint-Chéron-91	Saint-Chéron	48.549197583	2.126628204	50.45	1	1	5045	réponses par habitant
91538	7.142857143	0.1	7.142857143	7.142857143	45	Saint-Aubin-91	Saint-Aubin	48.714962667	2.139531545	50	5	5	700	réponses par habitant
91534	6.806150744	0.54	6.806150744	6.806150744	27	Saclay-91	Saclay	48.735433937	2.166302131	50	23	27	3967	réponses par habitant
91521	0.312543409	0.031254341	0.312543409	0.312543409	41	Ris-Orangis-91	Ris-Orangis	48.645193917	2.407936318	287.96	9	9	28796	réponses par habitant
91514	0.223289048	0.022328905	0.223289048	0.223289048	48	Quincy-sous-Sénart-91	Quincy-sous-Sénart	48.670332731	2.528374049	89.57	2	2	8957	réponses par habitant
91479	0.674672784	0.067467278	0.674672784	0.674672784	47	Paray-Vieille-Poste-91	Paray-Vieille-Poste	48.724184822	2.359834939	74.11	3	5	7411	réponses par habitant
91477	6.535756155	0.653575615	6.535756155	6.535756155	0	Palaiseau-91	Palaiseau	48.714676588	2.228814881	341.2	204	223	34120	réponses par habitant
91471	6.415637367	0.641563737	6.415637367	6.415637367	0	Orsay-91	Orsay	48.700409395	2.187370512	166.78	102	107	16678	réponses par habitant
91468	0.2	0.02	0.2	0.495540139	49	Ormoy-91	Ormoy	48.573235715	2.457777987	50	1	1	2018	réponses par habitant
91458	2.320185615	0.22	2.320185615	2.320185615	40	Nozay-91	Nozay	48.660656013	2.238143873	50	10	11	4741	réponses par habitant
91457	1.466992665	0.12	1.466992665	1.466992665	45	La Norville-91	La Norville	48.581422529	2.265691279	50	5	6	4090	réponses par habitant
91434	0.283701357	0.028370136	0.283701357	0.283701357	44	Morsang-sur-Orge-91	Morsang-sur-Orge	48.656285519	2.350887397	211.49	6	6	21149	réponses par habitant
91433	0.2	0.02	0.2	0.229042602	49	Morigny-Champigny-91	Morigny-Champigny	48.440947543	2.207487977	50	1	1	4366	réponses par habitant
91432	0.368568480	0.036856848	0.368568480	0.368568480	47	Morangis-91	Morangis	48.702703885	2.336142966	135.66	3	5	13566	réponses par habitant
91425	1.190318741	0.119031874	1.190318741	1.190318741	44	Montlhéry-91	Montlhéry	48.642256255	2.268120852	75.61	6	9	7561	réponses par habitant
91421	2.544635408	0.254463541	2.544635408	2.544635408	0	Montgeron-91	Montgeron	48.695153180	2.462498818	239.72	55	61	23972	réponses par habitant
91405	4.284490146	0.4	4.284490146	4.284490146	32	Milly-la-Forêt-91	Milly-la-Forêt	48.403294823	2.464954035	50	18	20	4668	réponses par habitant
91390	0.2	0.02	0.2	0.319590924	49	Le Mérévillois-91	Le Mérévillois	48.318378078	2.073699293	50	1	1	3129	réponses par habitant
91386	0.423429781	0.042342978	0.423429781	0.423429781	44	Mennecy-91	Mennecy	48.558624218	2.437532360	141.7	6	6	14170	réponses par habitant
91377	5.408220495	0.540822050	5.408220495	5.408220495	0	Massy-91	Massy	48.727789643	2.275131319	499.24	253	270	49924	réponses par habitant
91376	0.754716981	0.075471698	0.754716981	0.754716981	47	Marolles-en-Hurepoix-91	Marolles-en-Hurepoix	48.564979862	2.299206572	53	3	4	5300	réponses par habitant
91363	8	2.150669780	8	21.506697800	0	Marcoussis-91	Marcoussis	48.646332189	2.206213937	81.37	121	175	8137	réponses par habitant
91359	0.733675715	0.04	0.733675715	0.733675715	48	Maisse-91	Maisse	48.395894133	2.370094058	50	2	2	2726	réponses par habitant
91347	0.628733103	0.062873310	0.628733103	0.628733103	46	Longpont-sur-Orge-91	Longpont-sur-Orge	48.640455693	2.286470610	63.62	4	4	6362	réponses par habitant
91345	1.850309927	0.185030993	1.850309927	1.850309927	17	Longjumeau-91	Longjumeau	48.690048805	2.302470567	216.18	33	40	21618	réponses par habitant
91340	1.723909296	0.172390930	1.723909296	1.723909296	38	Lisses-91	Lisses	48.596668886	2.424690946	75.41	12	13	7541	réponses par habitant
91339	0.581226388	0.058122639	0.581226388	0.581226388	46	Linas-91	Linas	48.625506194	2.251353487	68.82	4	4	6882	réponses par habitant
91338	0.896191187	0.089619119	0.896191187	0.896191187	47	Limours-91	Limours	48.646543232	2.081256637	66.95	3	6	6695	réponses par habitant
91333	0.912408759	0.08	0.912408759	0.912408759	46	Leuville-sur-Orge-91	Leuville-sur-Orge	48.614191732	2.267869166	50	4	4	4384	réponses par habitant
91330	0.725426188	0.072542619	0.725426188	0.725426188	46	Lardy-91	Lardy	48.527035411	2.270177128	55.14	4	4	5514	réponses par habitant
91326	4.100116272	0.410011627	4.100116272	4.100116272	0	Juvisy-sur-Orge-91	Juvisy-sur-Orge	48.691878932	2.373936826	163.41	55	67	16341	réponses par habitant
91318	0.2	0.02	0.2	0.510464523	49	Janville-sur-Juine-91	Janville-sur-Juine	48.501113484	2.253857561	50	1	1	1959	réponses par habitant
91312	8	0.806126562	8	8.061265619	0	Igny-91	Igny	48.736225061	2.224420217	99.24	75	80	9924	réponses par habitant
91286	0.2	0.003453277	0.2	0.034532772	49	Grigny-91	Grigny	48.656889612	2.387896479	289.58	1	1	28958	réponses par habitant
91275	3.492433062	0.18	3.492433062	3.492433062	41	Gometz-le-Châtel-91	Gometz-le-Châtel	48.674583466	2.142891374	50	9	9	2577	réponses par habitant
91272	6.355426005	0.635542600	6.355426005	6.355426005	0	Gif-sur-Yvette-91	Gif-sur-Yvette	48.698827363	2.127883650	209.27	122	133	20927	réponses par habitant
91249	1.310615990	0.1	1.310615990	1.310615990	45	Forges-les-Bains-91	Forges-les-Bains	48.619866924	2.082954231	50	5	5	3815	réponses par habitant
91243	0.2	0.02	0.2	0.481695568	49	Fontenay-lès-Briis-91	Fontenay-lès-Briis	48.610763178	2.164609558	50	1	1	2076	réponses par habitant
91228	1.847684906	0.184768491	1.847684906	1.847684906	0	Évry-Courcouronnes-91	Évry-Courcouronnes	48.629483166	2.440082445	546.63	56	101	54663	réponses par habitant
91226	0.2	0.015316281	0.2	0.153162812	49	Étréchy-91	Étréchy	48.492483239	2.179288481	65.29	1	1	6529	réponses par habitant
91225	0.2	0.02	0.2	0.316756414	50	Étiolles-91	Étiolles	48.650128350	2.483310986	50	0	1	3157	réponses par habitant
91223	0.245680124	0.024568012	0.245680124	0.245680124	44	Étampes-91	Étampes	48.421128231	2.138388817	244.22	6	6	24422	réponses par habitant
91216	0.537345513	0.053734551	0.537345513	0.537345513	44	Épinay-sur-Orge-91	Épinay-sur-Orge	48.672618112	2.318345861	111.66	6	6	11166	réponses par habitant
91215	0.156739812	0.015673981	0.156739812	0.156739812	48	Épinay-sous-Sénart-91	Épinay-sous-Sénart	48.687152711	2.515772255	127.6	2	2	12760	réponses par habitant
91207	0.708591674	0.070859167	0.708591674	0.708591674	46	Égly-91	Égly	48.577831390	2.221411766	56.45	4	4	5645	réponses par habitant
91201	4.030192288	0.403019229	4.030192288	4.030192288	0	Draveil-91	Draveil	48.677841377	2.421978019	292.79	106	118	29279	réponses par habitant
91200	0.934404784	0.093440478	0.934404784	0.934404784	42	Dourdan-91	Dourdan	48.535935153	1.994301568	107.02	8	10	10702	réponses par habitant
91191	0.658616905	0.065861690	0.658616905	0.658616905	45	Crosne-91	Crosne	48.720086990	2.463317279	91.1	5	6	9110	réponses par habitant
91179	0.612494896	0.06	0.612494896	0.612494896	48	Le Coudray-Montceaux-91	Le Coudray-Montceaux	48.558779145	2.487424245	50	2	3	4898	réponses par habitant
91174	0.901095026	0.090109503	0.901095026	0.901095026	14	Corbeil-Essonnes-91	Corbeil-Essonnes	48.603480925	2.469340790	510.49	36	46	51049	réponses par habitant
91161	0.794715144	0.079471514	0.794715144	0.794715144	36	Chilly-Mazarin-91	Chilly-Mazarin	48.707766313	2.311112233	201.33	14	16	20133	réponses par habitant
91156	0.994035785	0.04	0.994035785	0.994035785	49	Cheptainville-91	Cheptainville	48.546584168	2.274162184	50	1	2	2012	réponses par habitant
91136	0.2	0.02	0.2	0.357653791	49	Champlan-91	Champlan	48.708359975	2.278153981	50	1	1	2796	réponses par habitant
91132	0.2	0.02	0.2	0.874125874	49	Chamarande-91	Chamarande	48.516773966	2.218000829	50	1	1	1144	réponses par habitant
91129	0.2	0.02	0.2	0.301477238	49	Cerny-91	Cerny	48.485979852	2.310682839	50	1	1	3317	réponses par habitant
91122	8	1.022093744	8	10.220937435	0	Bures-sur-Yvette-91	Bures-sur-Yvette	48.692997992	2.158386861	96.86	97	99	9686	réponses par habitant
91115	0.2	0.02	0.2	0.301114122	49	Bruyères-le-Châtel-91	Bruyères-le-Châtel	48.600315457	2.186870415	50	1	1	3321	réponses par habitant
91114	2.916906544	0.291690654	2.916906544	2.916906544	0	Brunoy-91	Brunoy	48.696439629	2.503947533	260.55	64	76	26055	réponses par habitant
91111	2.570694087	0.18	2.570694087	2.570694087	43	Briis-sous-Forges-91	Briis-sous-Forges	48.627144774	2.130908047	50	7	9	3501	réponses par habitant
91105	0.592417062	0.059241706	0.592417062	0.592417062	45	Breuillet-91	Breuillet	48.571821511	2.165983898	84.4	5	5	8440	réponses par habitant
91103	1.712654615	0.171265461	1.712654615	1.712654615	12	Brétigny-sur-Orge-91	Brétigny-sur-Orge	48.602511340	2.302162323	262.75	38	45	26275	réponses par habitant
91099	0.2	0.02	0.2	0.330797221	49	Boutigny-sur-Essonne-91	Boutigny-sur-Essonne	48.436181840	2.395422376	50	1	1	3023	réponses par habitant
91097	0.549299643	0.054929964	0.549299643	0.549299643	46	Boussy-Saint-Antoine-91	Boussy-Saint-Antoine	48.689530907	2.533819153	72.82	4	4	7282	réponses par habitant
91095	0.2	0.02	0.2	0.450653447	49	Bouray-sur-Juine-91	Bouray-sur-Juine	48.512302014	2.296103422	50	1	1	2219	réponses par habitant
91093	3.139717425	0.04	3.139717425	3.139717425	48	Boullay-les-Troux-91	Boullay-les-Troux	48.675351506	2.048283138	50	2	2	637	réponses par habitant
91086	0.213743721	0.021374372	0.213743721	0.213743721	49	Bondoufle-91	Bondoufle	48.614047657	2.380025414	93.57	1	2	9357	réponses par habitant
91085	0.784108730	0.06	0.784108730	0.784108730	47	Boissy-sous-Saint-Yon-91	Boissy-sous-Saint-Yon	48.550039589	2.212869824	50	3	3	3826	réponses par habitant
91064	6.266205704	0.58	6.266205704	6.266205704	23	Bièvres-91	Bièvres	48.756735111	2.206652071	50	27	29	4628	réponses par habitant
91047	0.2	0.02	0.2	0.758725341	49	Baulne-91	Baulne	48.494968773	2.381408841	50	1	1	1318	réponses par habitant
91045	0.262226301	0.026222630	0.262226301	0.262226301	48	Ballancourt-sur-Essonne-91	Ballancourt-sur-Essonne	48.521899752	2.387880251	76.27	2	2	7627	réponses par habitant
91044	2.864066975	0.26	2.864066975	2.864066975	40	Ballainvilliers-91	Ballainvilliers	48.671324080	2.289138745	50	10	13	4539	réponses par habitant
91027	0.445222760	0.044522276	0.445222760	0.445222760	36	Athis-Mons-91	Athis-Mons	48.709244578	2.386604923	336.91	14	15	33691	réponses par habitant
91022	0.2	0.02	0.2	6.756756757	50	Arrancourt-91	Arrancourt	48.326704110	2.151555349	50	0	1	148	réponses par habitant
91021	0.293341156	0.029334116	0.293341156	0.293341156	48	Arpajon-91	Arpajon	48.590892165	2.243491176	102.27	2	3	10227	réponses par habitant
90103	3.144654088	0.04	3.144654088	3.144654088	48	Vétrigne-90	Vétrigne	47.669098622	6.894538086	50	2	2	636	réponses par habitant
90099	8	0.805243446	8	8.052434457	7	Valdoie-90	Valdoie	47.671238919	6.848608216	53.4	43	43	5340	réponses par habitant
90094	4.249291785	0.06	4.249291785	4.249291785	47	Sevenans-90	Sevenans	47.588755006	6.870091547	50	3	3	706	réponses par habitant
90075	4.255319149	0.34	4.255319149	4.255319149	33	Offemont-90	Offemont	47.662916573	6.875008344	50	17	17	3995	réponses par habitant
90058	0.2	0.02	0.2	1.700680272	50	Lachapelle-sous-Rougemont-90	Lachapelle-sous-Rougemont	47.713768191	7.015919746	50	0	1	588	réponses par habitant
90039	0.912686340	0.06	0.912686340	0.912686340	47	Essert-90	Essert	47.636701496	6.811982362	50	3	3	3287	réponses par habitant
90033	1.223990208	0.122399021	1.223990208	1.223990208	43	Delle-90	Delle	47.508566805	6.996538505	57.19	7	7	5719	réponses par habitant
90032	2.151115891	0.16	2.151115891	2.151115891	42	Danjoutin-90	Danjoutin	47.617926329	6.866322664	50	8	8	3719	réponses par habitant
90029	1.023541453	0.04	1.023541453	1.023541453	48	Cravanche-90	Cravanche	47.651806956	6.823838103	50	2	2	1954	réponses par habitant
90022	0.2	0.02	0.2	0.364033491	50	Châtenois-les-Forges-90	Châtenois-les-Forges	47.559096894	6.833731850	50	0	1	2747	réponses par habitant
90012	0.2	0.02	0.2	0.816326531	50	Bessoncourt-90	Bessoncourt	47.644811938	6.942928471	50	0	1	1225	réponses par habitant
90011	5.037783375	0.04	5.037783375	5.037783375	48	Bermont-90	Bermont	47.575464082	6.845574019	50	2	2	397	réponses par habitant
90010	3.716333490	0.371633349	3.716333490	3.716333490	0	Belfort-90	Belfort	47.647153941	6.845412062	489.73	178	182	48973	réponses par habitant
90009	0.594294770	0.059429477	0.594294770	0.594294770	47	Beaucourt-90	Beaucourt	47.486645882	6.925267960	50.48	3	3	5048	réponses par habitant
90008	0.838222967	0.08	0.838222967	0.838222967	46	Bavilliers-90	Bavilliers	47.619969509	6.830655422	50	4	4	4772	réponses par habitant
90004	0.2	0.02	0.2	2.202643172	49	Argiésans-90	Argiésans	47.604974356	6.823281226	50	1	1	454	réponses par habitant
90001	0.2	0.02	0.2	0.825763832	49	Andelnans-90	Andelnans	47.603165532	6.865698320	50	1	1	1211	réponses par habitant
89464	0.2	0.019015022	0.2	0.190150219	49	Villeneuve-sur-Yonne-89	Villeneuve-sur-Yonne	48.081772955	3.319888498	52.59	1	1	5259	réponses par habitant
89453	0.2	0.02	0.2	0.909918107	49	Villefargeau-89	Villefargeau	47.788290654	3.486377060	50	1	1	1099	réponses par habitant
89418	0.2	0.02	0.2	0.212539851	49	Tonnerre-89	Tonnerre	47.841104450	3.977442167	50	1	1	4705	réponses par habitant
89387	1.041948057	0.104194806	1.041948057	1.041948057	26	Sens-89	Sens	48.195672702	3.297933326	259.13	24	27	25913	réponses par habitant
89346	0.2	0.02	0.2	0.307314075	49	Saint-Georges-sur-Baulche-89	Saint-Georges-sur-Baulche	47.802180926	3.517092410	50	1	1	3254	réponses par habitant
89337	0.2	0.02	0.2	0.962463908	50	Saint-Bris-le-Vineux-89	Saint-Bris-le-Vineux	47.739733776	3.656901055	50	0	1	1039	réponses par habitant
89298	0.2	0.02	0.2	1.550387597	49	Piffonds-89	Piffonds	48.057100187	3.140721152	50	1	1	645	réponses par habitant
89272	0.2	0.02	0.2	3.322259136	49	Moulins-sur-Ouanne-89	Moulins-sur-Ouanne	47.703685044	3.343081793	50	1	1	301	réponses par habitant
89206	0.609137056	0.060913706	0.609137056	0.609137056	45	Joigny-89	Joigny	48.008855080	3.409801808	98.5	5	6	9850	réponses par habitant
89122	0.2	0.02	0.2	1.788908766	49	Courgenay-89	Courgenay	48.289938918	3.546208434	50	1	1	559	réponses par habitant
89025	0.296384114	0.029638411	0.296384114	0.296384114	48	Avallon-89	Avallon	47.482478993	3.915859540	67.48	2	2	6748	réponses par habitant
89024	0.947024049	0.094702405	0.947024049	0.947024049	26	Auxerre-89	Auxerre	47.793488225	3.581682818	348.46	24	33	34846	réponses par habitant
88531	0.2	0.02	0.2	0.655307995	49	Xonrupt-Longemer-88	Xonrupt-Longemer	48.071609227	6.953745864	50	1	1	1526	réponses par habitant
88530	0.2	0.02	0.2	0.380517504	49	Xertigny-88	Xertigny	48.038712121	6.382375514	50	1	1	2628	réponses par habitant
88529	0.2	0.02	0.2	9.523809524	49	Xaronval-88	Xaronval	48.372062945	6.186675514	50	1	1	105	réponses par habitant
88522	0.2	0.02	0.2	14.492753623	49	Vomécourt-sur-Madon-88	Vomécourt-sur-Madon	48.361846527	6.170019128	50	1	1	69	réponses par habitant
88516	0.577812018	0.057781202	0.577812018	0.577812018	47	Vittel-88	Vittel	48.201289394	5.954494030	51.92	3	3	5192	réponses par habitant
88483	0.2	0.02	0.2	0.436490615	49	Uxegney-88	Uxegney	48.196337654	6.382013586	50	1	1	2291	réponses par habitant
88465	0.332115576	0.033211558	0.332115576	0.332115576	47	Capavenir Vosges-88	Capavenir Vosges	48.249551411	6.408638365	90.33	3	3	9033	réponses par habitant
88463	1.934235977	0.06	1.934235977	1.934235977	47	Taintrux-88	Taintrux	48.250315005	6.883004530	50	3	3	1551	réponses par habitant
88449	0.2	0.02	0.2	5.319148936	49	Savigny-88	Savigny	48.355592259	6.218611502	50	1	1	188	réponses par habitant
88445	0.2	0.02	0.2	0.428265525	50	Saulcy-sur-Meurthe-88	Saulcy-sur-Meurthe	48.242475424	6.949125387	50	0	1	2335	réponses par habitant
88439	0.2	0.02	0.2	1.070663812	49	Sanchey-88	Sanchey	48.166945867	6.368025857	50	1	1	934	réponses par habitant
88428	0.2	0.02	0.2	0.533333333	49	Saint-Michel-sur-Meurthe-88	Saint-Michel-sur-Meurthe	48.311659287	6.876084591	50	1	1	1875	réponses par habitant
88424	0.861326443	0.04	0.861326443	0.861326443	49	Sainte-Marguerite-88	Sainte-Marguerite	48.267558112	6.973400427	50	1	2	2322	réponses par habitant
88413	7.241239619	0.724123962	7.241239619	7.241239619	0	Saint-Dié-des-Vosges-88	Saint-Dié-des-Vosges	48.296709351	6.938093675	197.48	119	143	19748	réponses par habitant
88386	0.2	0.02	0.2	2.070393375	50	Remomeix-88	Remomeix	48.263648984	7.009585460	50	0	1	483	réponses par habitant
88372	0.622471211	0.062247121	0.622471211	0.622471211	46	Raon-l'Étape-88	Raon-l'Étape	48.407933765	6.860324296	64.26	4	4	6426	réponses par habitant
88367	0.2	0.018917896	0.2	0.189178963	49	Rambervillers-88	Rambervillers	48.345872214	6.631210028	52.86	1	1	5286	réponses par habitant
88361	0.2	0.02	0.2	0.719942405	50	Provenchères-et-Colroy-88	Provenchères-et-Colroy	48.315351108	7.079504791	50	0	1	1389	réponses par habitant
88357	0.2	0.02	0.2	1.432664756	49	Poussay-88	Poussay	48.322614528	6.120775629	50	1	1	698	réponses par habitant
88328	3.703703704	0.04	3.703703704	3.703703704	49	Nompatelize-88	Nompatelize	48.329345750	6.855560756	50	1	2	540	réponses par habitant
88321	0.602500377	0.060250038	0.602500377	0.602500377	46	Neufchâteau-88	Neufchâteau	48.356502356	5.691319140	66.39	4	4	6639	réponses par habitant
88304	0.756859035	0.075685904	0.756859035	0.756859035	46	Mirecourt-88	Mirecourt	48.293531214	6.120324215	52.85	4	4	5285	réponses par habitant
88286	0.2	0.02	0.2	10.752688172	50	Marainville-sur-Madon-88	Marainville-sur-Madon	48.396965900	6.162681750	50	0	1	93	réponses par habitant
88209	0.580990007	0.058099001	0.580990007	0.580990007	45	Golbey-88	Golbey	48.200242860	6.425451281	86.06	5	5	8606	réponses par habitant
88201	0.2	0.02	0.2	1.107419712	49	Girancourt-88	Girancourt	48.146942549	6.326996483	50	1	1	903	réponses par habitant
88197	0.2	0.02	0.2	2.724795640	50	Gerbamont-88	Gerbamont	48.003401557	6.768978184	50	0	1	367	réponses par habitant
88196	0.860691012	0.086069101	0.860691012	0.860691012	43	Gérardmer-88	Gérardmer	48.065305767	6.859122401	81.33	7	7	8133	réponses par habitant
88185	0.2	0.02	0.2	9.174311927	49	Frenelle-la-Grande-88	Frenelle-la-Grande	48.352787817	6.091660221	50	1	1	109	réponses par habitant
88181	0.2	0.02	0.2	0.344589938	50	Fraize-88	Fraize	48.186317725	7.018010712	50	0	1	2902	réponses par habitant
88178	3.183023873	0.12	3.183023873	3.183023873	44	Les Forges-88	Les Forges	48.174100939	6.395168481	50	6	6	1885	réponses par habitant
88173	0.2	0.02	0.2	2.262443439	49	Florémont-88	Florémont	48.371184251	6.252827612	50	1	1	442	réponses par habitant
88160	4.784840611	0.478484061	4.784840611	4.784840611	0	Épinal-88	Épinal	48.163120266	6.479892869	315.58	139	151	31558	réponses par habitant
88159	0.2	0.02	0.2	1.964636542	49	Entre-deux-Eaux-88	Entre-deux-Eaux	48.237680133	6.999658624	50	1	1	509	réponses par habitant
88158	0.620347395	0.04	0.620347395	0.620347395	48	Éloyes-88	Éloyes	48.093127620	6.620034075	50	2	2	3224	réponses par habitant
88128	0.2	0.02	0.2	4.065040650	49	Denipaire-88	Denipaire	48.339816854	6.961892910	50	1	1	246	réponses par habitant
88126	0.2	0.02	0.2	0.689179876	49	Darnieulles-88	Darnieulles	48.197477357	6.338327169	50	1	1	1451	réponses par habitant
88124	0.2	0.02	0.2	0.903342367	49	Darney-88	Darney	48.078149735	6.054188951	50	1	1	1107	réponses par habitant
88116	0.926497838	0.06	0.926497838	0.926497838	48	Cornimont-88	Cornimont	47.968549175	6.865304620	50	2	3	3238	réponses par habitant
88114	0.928217822	0.06	0.928217822	0.928217822	48	Contrexéville-88	Contrexéville	48.185440811	5.893579999	50	2	3	3232	réponses par habitant
88106	2.103049422	0.04	2.103049422	2.103049422	49	Ban-sur-Meurthe-Clefcy-88	Ban-sur-Meurthe-Clefcy	48.126685149	6.975202854	50	1	2	951	réponses par habitant
88090	0.637484063	0.06	0.637484063	0.637484063	47	Charmes-88	Charmes	48.384807199	6.317889901	50	3	3	4706	réponses par habitant
88087	0.2	0.02	0.2	0.313087038	50	Chantraine-88	Chantraine	48.166759778	6.419557605	50	0	1	3194	réponses par habitant
88078	7.142857143	0.44	7.142857143	7.142857143	29	Bruyères-88	Bruyères	48.212934847	6.716030663	50	21	22	3080	réponses par habitant
88075	0.2	0.02	0.2	0.238208671	49	La Bresse-88	La Bresse	48.018500251	6.926155483	50	1	1	4198	réponses par habitant
88024	0.2	0.02	0.2	9.174311927	49	Avrainville-88	Avrainville	48.378199308	6.221157914	50	1	1	109	réponses par habitant
87205	0.2	0.02	0.2	0.464900046	49	Le Vigen-87	Le Vigen	45.736686294	1.281483153	50	1	1	2151	réponses par habitant
87201	0.2	0.02	0.2	0.204123290	49	Verneuil-sur-Vienne-87	Verneuil-sur-Vienne	45.850465445	1.129477726	50	1	1	4899	réponses par habitant
87156	0.2	0.02	0.2	0.372578241	49	Saint-Just-le-Martel-87	Saint-Just-le-Martel	45.852503099	1.386893076	50	1	1	2684	réponses par habitant
87154	0.717681888	0.071768189	0.717681888	0.717681888	43	Saint-Junien-87	Saint-Junien	45.902452005	0.887855845	111.47	7	8	11147	réponses par habitant
87153	6.993006993	0.04	6.993006993	6.993006993	48	Saint-Julien-le-Petit-87	Saint-Julien-le-Petit	45.822678972	1.705622306	50	2	2	286	réponses par habitant
87143	0.2	0.02	0.2	0.473260767	50	Saint-Gence-87	Saint-Gence	45.909467983	1.139383640	50	0	1	2113	réponses par habitant
87126	0.528960592	0.04	0.528960592	0.528960592	49	Rochechouart-87	Rochechouart	45.823603281	0.842805123	50	1	2	3781	réponses par habitant
87125	0.880669309	0.08	0.880669309	0.880669309	47	Rilhac-Rancon-87	Rilhac-Rancon	45.907785002	1.332575261	50	3	4	4542	réponses par habitant
87114	1.456796868	0.145679687	1.456796868	1.456796868	37	Panazol-87	Panazol	45.840733218	1.323577917	109.83	13	16	10983	réponses par habitant
87113	0.827403607	0.082740361	0.827403607	0.827403607	48	Le Palais-sur-Vienne-87	Le Palais-sur-Vienne	45.873459520	1.325267996	60.43	2	5	6043	réponses par habitant
87110	0.2	0.02	0.2	0.403063281	49	Oradour-sur-Glane-87	Oradour-sur-Glane	45.931072805	1.023033814	50	1	1	2481	réponses par habitant
87089	0.2	0.02	0.2	0.575043128	49	Magnac-Laval-87	Magnac-Laval	46.228520728	1.172810649	50	1	1	1739	réponses par habitant
87088	0.2	0.02	0.2	0.914076782	49	Magnac-Bourg-87	Magnac-Bourg	45.600843154	1.435626098	50	1	1	1094	réponses par habitant
87085	2.449871853	0.244987185	2.449871853	2.449871853	0	Limoges-87	Limoges	45.854254959	1.248757902	1326.6	278	325	132660	réponses par habitant
87075	1.182188362	0.118218836	1.182188362	1.182188362	43	Isle-87	Isle	45.803587092	1.195243261	76.13	7	9	7613	réponses par habitant
87066	0.2	0.02	0.2	0.948766603	50	Flavignac-87	Flavignac	45.712878172	1.073735729	50	0	1	1054	réponses par habitant
87065	1.304844234	0.130484423	1.304844234	1.304844234	47	Feytiat-87	Feytiat	45.805436822	1.329452602	61.31	3	8	6131	réponses par habitant
87059	0.2	0.02	0.2	0.593119810	49	Le Dorat-87	Le Dorat	46.205092381	1.067746714	50	1	1	1686	réponses par habitant
87050	2.948241974	0.294824197	2.948241974	2.948241974	26	Couzeix-87	Couzeix	45.883076840	1.220781651	91.58	24	27	9158	réponses par habitant
87048	0.976181179	0.097618118	0.976181179	0.976181179	47	Condat-sur-Vienne-87	Condat-sur-Vienne	45.783326080	1.240083386	51.22	3	5	5122	réponses par habitant
87046	0.2	0.02	0.2	0.844594595	49	Cognac-la-Forêt-87	Cognac-la-Forêt	45.836728834	1.005022960	50	1	1	1184	réponses par habitant
87038	0.950118765	0.04	0.950118765	0.950118765	48	Chaptelat-87	Chaptelat	45.917666355	1.246688952	50	2	2	2105	réponses par habitant
87022	0.2	0.02	0.2	7.462686567	49	Breuilaufa-87	Breuilaufa	46.042765226	1.109292784	50	1	1	134	réponses par habitant
87021	0.2	0.02	0.2	0.388953715	50	Bosmie-l'Aiguille-87	Bosmie-l'Aiguille	45.765593671	1.204276600	50	0	1	2571	réponses par habitant
87011	1.766338632	0.14	1.766338632	1.766338632	45	Bellac-87	Bellac	46.104912255	1.041164672	50	5	7	3963	réponses par habitant
87006	0.2	0.02	0.2	3.846153846	49	Azat-le-Ris-87	Azat-le-Ris	46.307779936	1.057371985	50	1	1	260	réponses par habitant
87002	0.2	0.017689722	0.2	0.176897223	49	Ambazac-87	Ambazac	45.953422662	1.399308733	56.53	1	1	5653	réponses par habitant
87001	1.707067258	0.170706726	1.707067258	1.707067258	42	Aixe-sur-Vienne-87	Aixe-sur-Vienne	45.798115839	1.132561199	58.58	8	10	5858	réponses par habitant
86298	0.2	0.02	0.2	0.460617227	49	Vouneuil-sur-Vienne-86	Vouneuil-sur-Vienne	46.719460008	0.541343502	50	1	1	2171	réponses par habitant
86297	0.861178092	0.086117809	0.861178092	0.861178092	46	Vouneuil-sous-Biard-86	Vouneuil-sous-Biard	46.579255572	0.270706460	58.06	4	5	5806	réponses par habitant
86294	0.813228517	0.06	0.813228517	0.813228517	47	Vouillé-86	Vouillé	46.62150106	0.163409416	50	3	3	3689	réponses par habitant
86293	0.2	0.02	0.2	0.231588698	49	Vivonne-86	Vivonne	46.412040698	0.257005369	50	1	1	4318	réponses par habitant
86272	0.2	0.02	0.2	0.347101701	49	Thuré-86	Thuré	46.840898870	0.455456316	50	1	1	2881	réponses par habitant
86263	0.2	0.02	0.2	0.360360360	49	Smarves-86	Smarves	46.511786093	0.357385274	50	1	1	2775	réponses par habitant
86261	0.934579439	0.04	0.934579439	0.934579439	48	Sèvres-Anxaumont-86	Sèvres-Anxaumont	46.573932034	0.461970505	50	2	2	2140	réponses par habitant
86256	0.2	0.02	0.2	0.862812770	49	Savigny-Lévescault-86	Savigny-Lévescault	46.528965691	0.477909234	50	1	1	1159	réponses par habitant
86226	0.2	0.02	0.2	0.381970970	49	Saint-Julien-l'Ars-86	Saint-Julien-l'Ars	46.554677801	0.506618351	50	1	1	2618	réponses par habitant
86222	0.2	0.02	0.2	0.242895312	49	Saint-Georges-lès-Baillargeaux-86	Saint-Georges-lès-Baillargeaux	46.664001537	0.435326069	50	1	1	4117	réponses par habitant
86214	1.546681665	0.154668166	1.546681665	1.546681665	39	Saint-Benoît-86	Saint-Benoît	46.548646950	0.352443691	71.12	11	11	7112	réponses par habitant
86204	0.901713255	0.04	0.901713255	0.901713255	48	Quinçay-86	Quinçay	46.605531696	0.218304770	50	2	2	2218	réponses par habitant
86194	7.980809677	0.798080968	7.980809677	7.980809677	0	Poitiers-86	Poitiers	46.583920773	0.359947653	879.61	654	702	87961	réponses par habitant
86180	0.2	0.02	0.2	0.364697301	49	Nouaillé-Maupertuis-86	Nouaillé-Maupertuis	46.505287963	0.418002333	50	1	1	2742	réponses par habitant
86177	0.561797753	0.056179775	0.561797753	0.561797753	47	Neuville-de-Poitou-86	Neuville-de-Poitou	46.682310262	0.254645074	53.4	3	3	5340	réponses par habitant
86174	0.2	0.016980812	0.2	0.169808117	49	Naintré-86	Naintré	46.772548758	0.494183226	58.89	1	1	5889	réponses par habitant
86163	0.561482313	0.04	0.561482313	0.561482313	48	Montamisé-86	Montamisé	46.628549808	0.434064497	50	2	2	3562	réponses par habitant
86158	2.826267664	0.282626766	2.826267664	2.826267664	35	Migné-Auxances-86	Migné-Auxances	46.632025358	0.304897711	60.15	15	17	6015	réponses par habitant
86157	2.525252525	0.22	2.525252525	2.525252525	41	Mignaloux-Beauvoir-86	Mignaloux-Beauvoir	46.548380743	0.415961339	50	9	11	4356	réponses par habitant
86137	0.2	0.014827995	0.2	0.148279953	50	Loudun-86	Loudun	47.009807286	0.099044312	67.44	0	1	6744	réponses par habitant
86136	0.2	0.02	0.2	2.433090024	49	Lizant-86	Lizant	46.080091519	0.283290345	50	1	1	411	réponses par habitant
86133	8	0.58	8	8.695652174	26	Ligugé-86	Ligugé	46.520584063	0.298086286	50	24	29	3335	réponses par habitant
86131	0.2	0.02	0.2	1.177856302	50	Lhommaizé-86	Lhommaizé	46.443424695	0.588807649	50	0	1	849	réponses par habitant
86128	0.2	0.02	0.2	0.407000407	49	Lencloître-86	Lencloître	46.804648611	0.303557695	50	1	1	2457	réponses par habitant
86123	2.506265664	0.04	2.506265664	2.506265664	49	Boivre-la-Vallée-86	Boivre-la-Vallée	46.543354980	0.082149715	50	1	2	798	réponses par habitant
86115	2.809740434	0.280974043	2.809740434	2.809740434	32	Jaunay-Marigny-86	Jaunay-Marigny	46.693592000	0.356614754	74.74	18	21	7474	réponses par habitant
86113	0.2	0.02	0.2	0.341296928	49	Iteuil-86	Iteuil	46.484768544	0.291606821	50	1	1	2930	réponses par habitant
86112	0.2	0.02	0.2	0.862068966	49	L'Isle-Jourdain-86	L'Isle-Jourdain	46.238469693	0.698756501	50	1	1	1160	réponses par habitant
86108	0.2	0.02	0.2	2.583979328	50	La Grimaudière-86	La Grimaudière	46.802651629	0.030133812	50	0	1	387	réponses par habitant
86105	0.2	0.02	0.2	2.570694087	49	Gizay-86	Gizay	46.439580357	0.423353423	50	1	1	389	réponses par habitant
86100	0.518806744	0.04	0.518806744	0.518806744	48	Fontaine-le-Comte-86	Fontaine-le-Comte	46.531243661	0.246086949	50	2	2	3855	réponses par habitant
86092	0.2	0.02	0.2	0.332557366	49	Dangé-Saint-Romain-86	Dangé-Saint-Romain	46.927082951	0.608217193	50	1	1	3007	réponses par habitant
86088	0.2	0.02	0.2	1.231527094	50	Croutelle-86	Croutelle	46.542558622	0.292949010	50	0	1	812	réponses par habitant
86081	0.2	0.02	0.2	0.659630607	50	Colombiers-86	Colombiers	46.779954139	0.437112923	50	0	1	1516	réponses par habitant
86079	0.2	0.02	0.2	1.821493625	49	La Roche-Rigault-86	La Roche-Rigault	46.969802639	0.170597991	50	1	1	549	réponses par habitant
86078	0.752728641	0.04	0.752728641	0.752728641	48	Civray-86	Civray	46.141223227	0.300987365	50	2	2	2657	réponses par habitant
86070	3.261023678	0.326102368	3.261023678	3.261023678	34	Chauvigny-86	Chauvigny	46.554556426	0.678622247	70.53	16	23	7053	réponses par habitant
86066	4.710359672	0.471035967	4.710359672	4.710359672	0	Châtellerault-86	Châtellerault	46.815670019	0.552598977	320.57	145	151	32057	réponses par habitant
86062	4.024571065	0.38	4.024571065	4.024571065	32	Chasseneuil-du-Poitou-86	Chasseneuil-du-Poitou	46.651860016	0.361722699	50	18	19	4721	réponses par habitant
86041	5.695443645	0.569544365	5.695443645	5.695443645	0	Buxerolles-86	Buxerolles	46.605409551	0.369205480	100.08	55	57	10008	réponses par habitant
86031	0.2	0.02	0.2	0.580383053	49	Bonnes-86	Bonnes	46.613909053	0.599381156	50	1	1	1723	réponses par habitant
86027	0.2	0.02	0.2	0.569476082	49	Biard-86	Biard	46.585991423	0.297504953	50	1	1	1756	réponses par habitant
86016	0.928505107	0.04	0.928505107	0.928505107	48	Avanton-86	Avanton	46.663611366	0.304857475	50	2	2	2154	réponses par habitant
86014	0.2	0.02	0.2	0.566251416	49	Availles-en-Châtellerault-86	Availles-en-Châtellerault	46.756192263	0.569776257	50	1	1	1766	réponses par habitant
85294	2.751977984	0.16	2.751977984	2.751977984	44	La Tranche-sur-Mer-85	La Tranche-sur-Mer	46.356460160	-1.431363221	50	6	8	2907	réponses par habitant
85288	0.399467377	0.039946738	0.399467377	0.399467377	47	Talmont-Saint-Hilaire-85	Talmont-Saint-Hilaire	46.475786445	-1.627514982	75.1	3	3	7510	réponses par habitant
85284	0.2	0.02	0.2	0.236966825	49	Soullans-85	Soullans	46.795128847	-1.913926995	50	1	1	4220	réponses par habitant
85268	0.2	0.02	0.2	0.701754386	49	Saint-Révérend-85	Saint-Révérend	46.705774186	-1.831554810	50	1	1	1425	réponses par habitant
85236	0.2	0.02	0.2	0.583771162	49	Saint-Julien-des-Landes-85	Saint-Julien-des-Landes	46.639592544	-1.715972491	50	1	1	1713	réponses par habitant
85234	0.926354794	0.092635479	0.926354794	0.926354794	42	Saint-Jean-de-Monts-85	Saint-Jean-de-Monts	46.802196874	-2.048397893	86.36	8	8	8636	réponses par habitant
85226	1.176577066	0.117657707	1.176577066	1.176577066	37	Saint-Hilaire-de-Riez-85	Saint-Hilaire-de-Riez	46.743273219	-1.964392290	110.49	13	13	11049	réponses par habitant
85223	0.2	0.02	0.2	0.344946533	49	Sainte-Hermine-85	Sainte-Hermine	46.557265995	-1.072108610	50	1	1	2899	réponses par habitant
85222	1.981505945	0.198150594	1.981505945	1.981505945	35	Saint-Gilles-Croix-de-Vie-85	Saint-Gilles-Croix-de-Vie	46.690470881	-1.919463633	75.7	15	15	7570	réponses par habitant
85216	0.2	0.02	0.2	0.488042948	49	Sainte-Gemme-la-Plaine-85	Sainte-Gemme-la-Plaine	46.473219621	-1.111030847	50	1	1	2049	réponses par habitant
85214	0.2	0.02	0.2	0.472813239	49	Sainte-Foy-85	Sainte-Foy	46.532760043	-1.692430747	50	1	1	2115	réponses par habitant
85213	0.482975127	0.04	0.482975127	0.482975127	48	Rives de l'Yon-85	Rives de l'Yon	46.605637391	-1.335449717	50	2	2	4141	réponses par habitant
85211	1.264222503	0.06	1.264222503	1.264222503	48	Sainte-Flaive-des-Loups-85	Sainte-Flaive-des-Loups	46.611019489	-1.580316279	50	2	3	2373	réponses par habitant
85196	0.2	0.02	0.2	0.550055006	49	Saint-André-Goule-d'Oie-85	Saint-André-Goule-d'Oie	46.841022448	-1.196442114	50	1	1	1818	réponses par habitant
85194	8	0.807981452	8	8.079814516	0	Les Sables-d'Olonne-85	Les Sables-d'Olonne	46.500761280	-1.792551287	142.33	112	115	14233	réponses par habitant
85191	5.117135893	0.511713589	5.117135893	5.117135893	0	La Roche-sur-Yon-85	La Roche-sur-Yon	46.667526164	-1.407795409	537.41	273	275	53741	réponses par habitant
85189	0.2	0.02	0.2	0.482858522	49	Notre-Dame-de-Riez-85	Notre-Dame-de-Riez	46.753217902	-1.893529254	50	1	1	2071	réponses par habitant
85182	0.542201337	0.054220134	0.542201337	0.542201337	47	Pouzauges-85	Pouzauges	46.781258170	-0.828778359	55.33	3	3	5533	réponses par habitant
85178	0.235377192	0.023537719	0.235377192	0.235377192	48	Le Poiré-sur-Vie-85	Le Poiré-sur-Vie	46.769919754	-1.504886265	84.97	2	2	8497	réponses par habitant
85163	3.850267380	0.36	3.850267380	3.850267380	32	Noirmoutier-en-l'Île-85	Noirmoutier-en-l'Île	47.008665509	-2.262436202	50	18	18	4675	réponses par habitant
85161	0.2	0.02	0.2	0.405186386	50	Nieul-le-Dolent-85	Nieul-le-Dolent	46.567650992	-1.515601945	50	0	1	2468	réponses par habitant
85160	0.700035002	0.04	0.700035002	0.700035002	48	Nesmy-85	Nesmy	46.592193648	-1.409476986	50	2	2	2857	réponses par habitant
85159	0.2	0.02	0.2	0.431778929	49	Nalliers-85	Nalliers	46.465896270	-1.039586113	50	1	1	2316	réponses par habitant
85155	0.814166497	0.08	0.814166497	0.814166497	46	Mouilleron-le-Captif-85	Mouilleron-le-Captif	46.710476499	-1.461296614	50	4	4	4913	réponses par habitant
85152	1.999600080	0.199960008	1.999600080	1.999600080	40	Les Achards-85	Les Achards	46.616364564	-1.650381568	50.01	10	10	5001	réponses par habitant
85151	0.2	0.016733601	0.2	0.167336011	49	Mortagne-sur-Sèvre-85	Mortagne-sur-Sèvre	46.991094132	-0.946500033	59.76	1	1	5976	réponses par habitant
85146	0.767606985	0.076760699	0.767606985	0.767606985	46	Montaigu-Vendée-85	Montaigu-Vendée	46.975980085	-1.313645303	52.11	4	4	5211	réponses par habitant
85142	0.2	0.02	0.2	1.011122346	49	La Merlatière-85	La Merlatière	46.755770311	-1.29794577	50	1	1	989	réponses par habitant
85132	0.2	0.02	0.2	1.307189542	49	Maillé-85	Maillé	46.341750308	-0.787487297	50	1	1	765	réponses par habitant
85128	2.323861836	0.232386184	2.323861836	2.323861836	30	Luçon-85	Luçon	46.451056485	-1.164492850	94.67	20	22	9467	réponses par habitant
85127	0.2	0.02	0.2	0.400801603	49	Longeville-sur-Mer-85	Longeville-sur-Mer	46.409102901	-1.477118553	50	1	1	2495	réponses par habitant
85113	0.626435582	0.06	0.626435582	0.626435582	47	L'Île-d'Yeu-85	L'Île-d'Yeu	46.709351482	-2.347127023	50	3	3	4789	réponses par habitant
85112	1.482030382	0.08	1.482030382	1.482030382	46	L'Île-d'Olonne-85	L'Île-d'Olonne	46.570163703	-1.773750237	50	4	4	2699	réponses par habitant
85111	0.2	0.02	0.2	0.651890482	50	L'Île-d'Elle-85	L'Île-d'Elle	46.333425865	-0.919100677	50	0	1	1534	réponses par habitant
85109	0.250438267	0.025043827	0.250438267	0.250438267	46	Les Herbiers-85	Les Herbiers	46.866612581	-1.022160862	159.72	4	4	15972	réponses par habitant
85106	0.2	0.02	0.2	0.735835173	49	La Guérinière-85	La Guérinière	46.966996205	-2.230279925	50	1	1	1359	réponses par habitant
85097	0.988793672	0.06	0.988793672	0.988793672	47	La Gaubretière-85	La Gaubretière	46.934500730	-1.055782007	50	3	3	3034	réponses par habitant
85094	0.2	0.02	0.2	0.897666068	49	Foussais-Payré-85	Foussais-Payré	46.523075058	-0.687135963	50	1	1	1114	réponses par habitant
85092	1.415375447	0.141537545	1.415375447	1.415375447	32	Fontenay-le-Comte-85	Fontenay-le-Comte	46.456318612	-0.793449511	134.24	18	19	13424	réponses par habitant
85090	0.2	0.015368065	0.2	0.153680652	49	Sèvremont-85	Sèvremont	46.821110586	-0.854584154	65.07	1	1	6507	réponses par habitant
85089	0.573175392	0.057317539	0.573175392	0.573175392	47	La Ferrière-85	La Ferrière	46.721587293	-1.334693323	52.34	3	3	5234	réponses par habitant
85088	0.428449015	0.04	0.428449015	0.428449015	48	Le Fenouiller-85	Le Fenouiller	46.716126457	-1.892066675	50	2	2	4668	réponses par habitant
85084	0.227169468	0.022716947	0.227169468	0.227169468	48	Essarts en Bocage-85	Essarts en Bocage	46.780673904	-1.229259679	88.04	2	2	8804	réponses par habitant
85083	1.212856277	0.04	1.212856277	1.212856277	48	L'Épine-85	L'Épine	46.984340567	-2.264495276	50	2	2	1649	réponses par habitant
85081	0.2	0.02	0.2	0.235404896	50	Dompierre-sur-Yon-85	Dompierre-sur-Yon	46.759985807	-1.372755194	50	0	1	4248	réponses par habitant
85080	0.2	0.02	0.2	0.581395349	49	Doix lès Fontaines-85	Doix lès Fontaines	46.384949233	-0.806840287	50	1	1	1720	réponses par habitant
85076	0.577034045	0.04	0.577034045	0.577034045	48	Cugand-85	Cugand	47.060238815	-1.252898111	50	2	2	3466	réponses par habitant
85054	0.2	0.02	0.2	1.127395716	49	La Chapelle-Hermier-85	La Chapelle-Hermier	46.682667920	-1.720833724	50	1	1	887	réponses par habitant
85051	0.241225425	0.024122543	0.241225425	0.241225425	49	Chantonnay-85	Chantonnay	46.669016779	-1.043725880	82.91	1	2	8291	réponses par habitant
85049	0.2	0.02	0.2	0.569151964	49	Champagné-les-Marais-85	Champagné-les-Marais	46.373502065	-1.133807237	50	1	1	1757	réponses par habitant
85047	0.935822292	0.093582229	0.935822292	0.935822292	31	Challans-85	Challans	46.835441665	-1.840366831	203.03	19	19	20303	réponses par habitant
85046	1.064962726	0.08	1.064962726	1.064962726	46	La Chaize-le-Vicomte-85	La Chaize-le-Vicomte	46.672953388	-1.291885910	50	4	4	3756	réponses par habitant
85038	0.2	0.02	0.2	0.358294518	49	Les Brouzils-85	Les Brouzils	46.885423524	-1.331868922	50	1	1	2791	réponses par habitant
85035	0.895255148	0.08	0.895255148	0.895255148	46	Bretignolles-sur-Mer-85	Bretignolles-sur-Mer	46.637482670	-1.863242005	50	4	4	4468	réponses par habitant
85029	0.2	0.02	0.2	0.464037123	49	Bouin-85	Bouin	46.981593087	-2.004238084	50	1	1	2155	réponses par habitant
85020	0.2	0.02	0.2	0.248200546	49	Benet-85	Benet	46.368873213	-0.613959919	50	1	1	4029	réponses par habitant
85019	0.337154417	0.033715442	0.337154417	0.337154417	48	Bellevigny-85	Bellevigny	46.775638353	-1.433137001	59.32	2	2	5932	réponses par habitant
85012	0.2	0.02	0.2	0.455996352	49	La Barre-de-Monts-85	La Barre-de-Monts	46.872278415	-2.099840189	50	1	1	2193	réponses par habitant
85011	0.2	0.02	0.2	0.570776256	49	Barbâtre-85	Barbâtre	46.933575478	-2.167435598	50	1	1	1752	réponses par habitant
85008	0.2	0.015552100	0.2	0.155520995	49	Aubigny-Les Clouzeaux-85	Aubigny-Les Clouzeaux	46.602824177	-1.467435491	64.3	1	1	6430	réponses par habitant
85003	0.644191540	0.064419154	0.644191540	0.644191540	45	Aizenay-85	Aizenay	46.738451681	-1.627028897	93.14	5	6	9314	réponses par habitant
85002	1.030396703	0.04	1.030396703	1.030396703	48	L'Aiguillon-sur-Vie-85	L'Aiguillon-sur-Vie	46.670642662	-1.825999923	50	2	2	1941	réponses par habitant
85001	0.2	0.02	0.2	0.475963827	49	L'Aiguillon-sur-Mer-85	L'Aiguillon-sur-Mer	46.304138479	-1.262323920	50	1	1	2101	réponses par habitant
84147	2.327611289	0.16	2.327611289	2.327611289	42	Villelaure-84	Villelaure	43.707515714	5.430854497	50	8	8	3437	réponses par habitant
84145	2.587322122	0.04	2.587322122	2.587322122	48	Villars-84	Villars	43.951981383	5.433344184	50	2	2	773	réponses par habitant
84144	6.359300477	0.08	6.359300477	6.359300477	47	Viens-84	Viens	43.903122640	5.560215831	50	3	4	629	réponses par habitant
84143	2.949852507	0.06	2.949852507	2.949852507	48	Venasque-84	Venasque	43.985123766	5.165068656	50	2	3	1017	réponses par habitant
84142	0.676818951	0.04	0.676818951	0.676818951	49	Velleron-84	Velleron	43.961570085	5.028370539	50	1	2	2955	réponses par habitant
84141	0.437330534	0.043733053	0.437330534	0.437330534	45	Vedène-84	Vedène	43.970861288	4.903278348	114.33	5	5	11433	réponses par habitant
84140	0.2	0.02	0.2	1.766784452	49	Vaugines-84	Vaugines	43.778618532	5.406678543	50	1	1	566	réponses par habitant
84138	0.211483557	0.021148356	0.211483557	0.211483557	48	Valréas-84	Valréas	44.377158862	4.993549362	94.57	2	2	9457	réponses par habitant
84137	0.2	0.016539861	0.2	0.165398611	49	Vaison-la-Romaine-84	Vaison-la-Romaine	44.247701867	5.060407823	60.46	1	1	6046	réponses par habitant
84133	3.065314784	0.26	3.065314784	3.065314784	39	La Tour-d'Aigues-84	La Tour-d'Aigues	43.721483519	5.567346641	50	11	13	4241	réponses par habitant
84132	1.114578689	0.111457869	1.114578689	1.114578689	42	Le Thor-84	Le Thor	43.928239832	4.993241234	89.72	8	10	8972	réponses par habitant
84131	0.2	0.02	0.2	0.518941360	49	Taillades-84	Taillades	43.831547451	5.094806905	50	1	1	1927	réponses par habitant
84129	0.491776406	0.049177641	0.491776406	0.491776406	42	Sorgues-84	Sorgues	44.014576395	4.867405154	183.01	8	9	18301	réponses par habitant
84127	0.773096250	0.04	0.773096250	0.773096250	49	Sérignan-du-Comtat-84	Sérignan-du-Comtat	44.193901221	4.847857272	50	1	2	2587	réponses par habitant
84124	0.2	0.02	0.2	1.063829787	49	Saumane-de-Vaucluse-84	Saumane-de-Vaucluse	43.938035752	5.112084998	50	1	1	940	réponses par habitant
84122	1.843781428	0.184378143	1.843781428	1.843781428	40	Sarrians-84	Sarrians	44.099314911	4.957269487	59.66	10	11	5966	réponses par habitant
84119	1.455906822	0.14	1.455906822	1.455906822	43	Saint-Saturnin-lès-Avignon-84	Saint-Saturnin-lès-Avignon	43.962152937	4.941099672	50	7	7	4808	réponses par habitant
84118	1.807664497	0.1	1.807664497	1.807664497	45	Saint-Saturnin-lès-Apt-84	Saint-Saturnin-lès-Apt	43.958736891	5.373257161	50	5	5	2766	réponses par habitant
84112	5.167958656	0.08	5.167958656	5.167958656	47	Saint-Martin-de-Castillon-84	Saint-Martin-de-Castillon	43.855107216	5.519193124	50	3	4	774	réponses par habitant
84110	0.2	0.02	0.2	27.777777778	49	Saint-Léger-du-Ventoux-84	Saint-Léger-du-Ventoux	44.205947676	5.270726250	50	1	1	36	réponses par habitant
84108	0.2	0.02	0.2	0.465983225	50	Saint-Didier-84	Saint-Didier	44.009254979	5.108652475	50	0	1	2146	réponses par habitant
84106	0.2	0.02	0.2	0.406504065	49	Sainte-Cécile-les-Vignes-84	Sainte-Cécile-les-Vignes	44.235855851	4.889282756	50	1	1	2460	réponses par habitant
84105	0.2	0.02	0.2	0.993048659	50	Saignon-84	Saignon	43.860408832	5.438316136	50	0	1	1007	réponses par habitant
84102	1.518602885	0.04	1.518602885	1.518602885	48	Roussillon-84	Roussillon	43.901281688	5.292018857	50	2	2	1317	réponses par habitant
84099	3.322995126	0.3	3.322995126	3.322995126	37	Robion-84	Robion	43.851967872	5.110086843	50	13	15	4514	réponses par habitant
84095	0.2	0.02	0.2	1.223990208	49	Puyvert-84	Puyvert	43.750190285	5.338082232	50	1	1	817	réponses par habitant
84092	0.683526999	0.068352700	0.683526999	0.683526999	39	Le Pontet-84	Le Pontet	43.968390353	4.865495908	175.56	11	12	17556	réponses par habitant
84091	0.388274122	0.038827412	0.388274122	0.388274122	48	Piolenc-84	Piolenc	44.177469705	4.765852891	51.51	2	2	5151	réponses par habitant
84089	4.171840079	0.417184008	4.171840079	4.171840079	0	Pertuis-84	Pertuis	43.687235746	5.520524803	201.35	69	84	20135	réponses par habitant
84088	0.753822959	0.075382296	0.753822959	0.753822959	45	Pernes-les-Fontaines-84	Pernes-les-Fontaines	43.996055054	5.039591002	92.86	5	7	9286	réponses par habitant
84087	1.061207723	0.106120772	1.061207723	1.061207723	24	Orange-84	Orange	44.128913537	4.809879240	292.12	26	31	29212	réponses par habitant
84086	1.469507715	0.04	1.469507715	1.469507715	48	Oppède-84	Oppède	43.831317534	5.169821504	50	2	2	1361	réponses par habitant
84082	0.2	0.02	0.2	0.531067446	49	Mormoiron-84	Mormoiron	44.070005845	5.190927012	50	1	1	1883	réponses par habitant
84081	1.084990958	0.108499096	1.084990958	1.084990958	41	Morières-lès-Avignon-84	Morières-lès-Avignon	43.933778885	4.908758783	82.95	9	9	8295	réponses par habitant
84080	0.621600622	0.062160062	0.621600622	0.621600622	44	Monteux-84	Monteux	44.033525600	4.984747665	128.7	6	8	12870	réponses par habitant
84077	0.2	0.02	0.2	2.207505519	49	Modène-84	Modène	44.105781187	5.127870692	50	1	1	453	réponses par habitant
84076	8	0.3	8	11.971268955	44	Mirabeau-84	Mirabeau	43.704865595	5.642689691	50	6	15	1253	réponses par habitant
84074	1.943634597	0.08	1.943634597	1.943634597	46	Mérindol-84	Mérindol	43.761924381	5.201534829	50	4	4	2058	réponses par habitant
84073	0.2	0.02	0.2	1.009081736	49	Ménerbes-84	Ménerbes	43.824371034	5.220871709	50	1	1	991	réponses par habitant
84072	3.028263795	0.302826380	3.028263795	3.028263795	41	Mazan-84	Mazan	44.054532010	5.130486009	59.44	9	18	5944	réponses par habitant
84068	0.2	0.02	0.2	0.901713255	50	Lourmarin-84	Lourmarin	43.778033384	5.366161741	50	0	1	1109	réponses par habitant
84065	2.619858528	0.2	2.619858528	2.619858528	41	Lauris-84	Lauris	43.763036549	5.303336932	50	9	10	3817	réponses par habitant
84062	1.841620626	0.06	1.841620626	1.841620626	47	Lagnes-84	Lagnes	43.892487687	5.114586694	50	3	3	1629	réponses par habitant
84058	0.2	0.02	0.2	2.444987775	49	Lacoste-84	Lacoste	43.825742104	5.265922719	50	1	1	409	réponses par habitant
84056	2.626148940	0.262614894	2.626148940	2.626148940	36	Jonquières-84	Jonquières	44.131802956	4.913415430	53.31	14	14	5331	réponses par habitant
84054	5.155170636	0.515517064	5.155170636	5.155170636	0	L'Isle-sur-la-Sorgue-84	L'Isle-sur-la-Sorgue	43.913397592	5.056642775	193.98	91	100	19398	réponses par habitant
84052	1.582278481	0.04	1.582278481	1.582278481	49	Grambois-84	Grambois	43.760559842	5.604034436	50	1	2	1264	réponses par habitant
84051	1.796945193	0.04	1.796945193	1.796945193	48	Goult-84	Goult	43.867252059	5.247827594	50	2	2	1113	réponses par habitant
84050	0.2	0.02	0.2	0.533902830	49	Gordes-84	Gordes	43.909019241	5.198019786	50	1	1	1873	réponses par habitant
84047	0.659413122	0.04	0.659413122	0.659413122	49	Gargas-84	Gargas	43.896065394	5.343623301	50	1	2	3033	réponses par habitant
84043	0.714626012	0.071462601	0.714626012	0.714626012	44	Entraigues-sur-la-Sorgue-84	Entraigues-sur-la-Sorgue	43.995017336	4.932953872	83.96	6	6	8396	réponses par habitant
84042	5.636978579	0.2	5.636978579	5.636978579	43	Cucuron-84	Cucuron	43.778224355	5.443615804	50	7	10	1774	réponses par habitant
84039	1.080108011	0.108010801	1.080108011	1.080108011	45	Courthézon-84	Courthézon	44.086579097	4.881633421	55.55	5	6	5555	réponses par habitant
84038	2.846975089	0.24	2.846975089	2.846975089	42	Cheval-Blanc-84	Cheval-Blanc	43.788678228	5.124107321	50	8	12	4215	réponses par habitant
84036	0.2	0.02	0.2	0.302663438	50	Châteauneuf-de-Gadagne-84	Châteauneuf-de-Gadagne	43.927633168	4.942591145	50	0	1	3304	réponses par habitant
84035	3.397252001	0.339725200	3.397252001	3.397252001	0	Cavaillon-84	Cavaillon	43.850836183	5.036063009	264.92	67	90	26492	réponses par habitant
84034	0.823892894	0.08	0.823892894	0.823892894	48	Caumont-sur-Durance-84	Caumont-sur-Durance	43.891358049	4.956330773	50	2	4	4855	réponses par habitant
84031	2.416474049	0.241647405	2.416474049	2.416474049	0	Carpentras-84	Carpentras	44.059380256	5.061348448	285.54	59	69	28554	réponses par habitant
84030	1.212856277	0.08	1.212856277	1.212856277	47	Caromb-84	Caromb	44.112432875	5.106870405	50	3	4	3298	réponses par habitant
84029	0.2	0.02	0.2	0.219490781	49	Camaret-sur-Aigues-84	Camaret-sur-Aigues	44.159681403	4.884103975	50	1	1	4556	réponses par habitant
84026	3.835091083	0.32	3.835091083	3.835091083	35	Cadenet-84	Cadenet	43.730405628	5.383543197	50	15	16	4172	réponses par habitant
84024	0.2	0.02	0.2	1.050420168	50	Cabrières-d'Aigues-84	Cabrières-d'Aigues	43.791301536	5.491773115	50	0	1	952	réponses par habitant
84020	3.652300950	0.1	3.652300950	3.652300950	45	Bonnieux-84	Bonnieux	43.827093066	5.314579070	50	5	5	1369	réponses par habitant
84019	0.146273678	0.014627368	0.146273678	0.146273678	48	Bollène-84	Bollène	44.288201641	4.752359563	136.73	2	2	13673	réponses par habitant
84017	0.967429861	0.06	0.967429861	0.967429861	47	Bédoin-84	Bédoin	44.137462410	5.234460053	50	3	3	3101	réponses par habitant
84016	0.2	0.019661817	0.2	0.196618168	50	Bédarrides-84	Bédarrides	44.047745753	4.908041091	50.86	0	1	5086	réponses par habitant
84014	1.755926251	0.04	1.755926251	1.755926251	48	Beaumont-de-Pertuis-84	Beaumont-de-Pertuis	43.737910897	5.695991272	50	2	2	1139	réponses par habitant
84010	2.564102564	0.04	2.564102564	2.564102564	50	La Bastidonne-84	La Bastidonne	43.692838326	5.577693518	50	0	2	780	réponses par habitant
84007	7.978090021	0.797809002	7.978090021	7.978090021	0	Avignon-84	Avignon	43.935244834	4.840715725	923.78	700	737	92378	réponses par habitant
84006	0.2	0.02	0.2	13.888888889	49	Auribeau-84	Auribeau	43.829977166	5.448093598	50	1	1	72	réponses par habitant
84004	2.856122813	0.285612281	2.856122813	2.856122813	36	Aubignan-84	Aubignan	44.097738059	5.031656767	56.02	14	16	5602	réponses par habitant
84003	5.892399658	0.589239966	5.892399658	5.892399658	0	Apt-84	Apt	43.879393265	5.389217578	117.1	57	69	11710	réponses par habitant
84002	0.2	0.02	0.2	0.961538462	49	Ansouis-84	Ansouis	43.736517287	5.471366895	50	1	1	1040	réponses par habitant
84001	0.2	0.02	0.2	0.358937545	49	Althen-des-Paluds-84	Althen-des-Paluds	44.004808708	4.957938042	50	1	1	2786	réponses par habitant
83153	3.468609088	0.346860909	3.468609088	3.468609088	38	Saint-Mandrier-sur-Mer-83	Saint-Mandrier-sur-Mer	43.075432295	5.926423152	57.66	12	20	5766	réponses par habitant
83150	1.657196970	0.14	1.657196970	1.657196970	44	Vinon-sur-Verdon-83	Vinon-sur-Verdon	43.722427797	5.807476059	50	6	7	4224	réponses par habitant
83144	0.925341746	0.092534175	0.925341746	0.925341746	33	La Valette-du-Var-83	La Valette-du-Var	43.149915204	5.992225389	237.75	17	22	23775	réponses par habitant
83141	0.2	0.017331023	0.2	0.173310225	49	Trans-en-Provence-83	Trans-en-Provence	43.502468424	6.489432529	57.7	1	1	5770	réponses par habitant
83137	2.599714680	0.259971468	2.599714680	2.599714680	0	Toulon-83	Toulon	43.136158973	5.932396342	1696.34	380	441	169634	réponses par habitant
83136	0.2	0.02	0.2	0.408329931	50	Le Thoronet-83	Le Thoronet	43.458933028	6.282656235	50	0	1	2449	réponses par habitant
83132	0.2	0.02	0.2	0.414593698	49	Solliès-Ville-83	Solliès-Ville	43.178416631	6.017267225	50	1	1	2412	réponses par habitant
83131	1.219299774	0.121929977	1.219299774	1.219299774	43	Solliès-Toucas-83	Solliès-Toucas	43.21282693	5.986939086	57.41	7	7	5741	réponses par habitant
83130	1.447178003	0.144717800	1.447178003	1.447178003	37	Solliès-Pont-83	Solliès-Pont	43.190761125	6.063276972	110.56	13	16	11056	réponses par habitant
83129	2.977443609	0.297744361	2.977443609	2.977443609	0	Six-Fours-les-Plages-83	Six-Fours-les-Plages	43.086818602	5.829244649	332.5	96	99	33250	réponses par habitant
83127	0.713266762	0.04	0.713266762	0.713266762	49	Signes-83	Signes	43.277640745	5.857139622	50	1	2	2804	réponses par habitant
83126	2.723614980	0.272361498	2.723614980	2.723614980	0	La Seyne-sur-Mer-83	La Seyne-sur-Mer	43.088029497	5.870898418	646.2	151	176	64620	réponses par habitant
83123	5.199306759	0.519930676	5.199306759	5.199306759	0	Sanary-sur-Mer-83	Sanary-sur-Mer	43.138282853	5.795888142	167.33	73	87	16733	réponses par habitant
83121	0.2	0.02	0.2	0.257798402	49	Salernes-83	Salernes	43.562109934	6.228730672	50	1	1	3879	réponses par habitant
83120	0.361076006	0.036107601	0.361076006	0.361076006	49	Saint-Zacharie-83	Saint-Zacharie	43.377530059	5.718208510	55.39	1	2	5539	réponses par habitant
83119	0.465224471	0.04	0.465224471	0.465224471	48	Saint-Tropez-83	Saint-Tropez	43.262314383	6.663430399	50	2	2	4299	réponses par habitant
83118	2.697177900	0.269717790	2.697177900	2.697177900	0	Saint-Raphaël-83	Saint-Raphaël	43.457462543	6.847342104	352.22	81	95	35222	réponses par habitant
83116	1.037344398	0.103734440	1.037344398	1.037344398	35	Saint-Maximin-la-Sainte-Baume-83	Saint-Maximin-la-Sainte-Baume	43.450967641	5.859628735	163.88	15	17	16388	réponses par habitant
83115	0.140222954	0.014022295	0.140222954	0.140222954	48	Sainte-Maxime-83	Sainte-Maxime	43.356473099	6.611727902	142.63	2	2	14263	réponses par habitant
83112	0.340367597	0.034036760	0.340367597	0.340367597	47	Saint-Cyr-sur-Mer-83	Saint-Cyr-sur-Mer	43.172035525	5.708326037	117.52	3	4	11752	réponses par habitant
83111	1.040582726	0.04	1.040582726	1.040582726	49	Sainte-Anastasie-sur-Issole-83	Sainte-Anastasie-sur-Issole	43.333410384	6.124961185	50	1	2	1922	réponses par habitant
83107	2.918564920	0.291856492	2.918564920	2.918564920	21	Roquebrune-sur-Argens-83	Roquebrune-sur-Argens	43.428509096	6.652128817	140.48	29	41	14048	réponses par habitant
83101	0.962927299	0.04	0.962927299	0.962927299	48	Ramatuelle-83	Ramatuelle	43.218612619	6.637547342	50	2	2	2077	réponses par habitant
83100	0.2	0.02	0.2	0.236127509	49	Puget-Ville-83	Puget-Ville	43.276347594	6.148930541	50	1	1	4235	réponses par habitant
83099	1.658374793	0.165837479	1.658374793	1.658374793	43	Puget-sur-Argens-83	Puget-sur-Argens	43.471767125	6.686281959	78.39	7	13	7839	réponses par habitant
83098	8	1.466041687	8	14.660416874	0	Le Pradet-83	Le Pradet	43.099405984	6.028440155	100.27	122	147	10027	réponses par habitant
83097	0.2	0.019519813	0.2	0.195198126	50	Pourrières-83	Pourrières	43.493886360	5.747177117	51.23	0	1	5123	réponses par habitant
83091	1.815181518	0.181518152	1.815181518	1.815181518	44	Pierrefeu-du-Var-83	Pierrefeu-du-Var	43.234547246	6.179558235	60.6	6	11	6060	réponses par habitant
83090	1.179680012	0.117968001	1.179680012	1.179680012	36	Ollioules-83	Ollioules	43.138613366	5.853692045	135.63	14	16	13563	réponses par habitant
83089	0.2	0.02	0.2	1.567398119	50	Ollières-83	Ollières	43.510195514	5.816462934	50	0	1	638	réponses par habitant
83088	1.485884101	0.08	1.485884101	1.485884101	46	Néoules-83	Néoules	43.294531100	6.025927391	50	4	4	2692	réponses par habitant
83086	1.081314879	0.108131488	1.081314879	1.081314879	41	Le Muy-83	Le Muy	43.468730795	6.576949368	92.48	9	10	9248	réponses par habitant
83081	0.630318311	0.063031831	0.630318311	0.630318311	46	Montauroux-83	Montauroux	43.599010107	6.789859953	63.46	4	4	6346	réponses par habitant
83071	0.683927699	0.068392770	0.683927699	0.683927699	43	La Londe-les-Maures-83	La Londe-les-Maures	43.168921341	6.242851510	102.35	7	7	10235	réponses par habitant
83070	0.694565029	0.069456503	0.694565029	0.694565029	47	Le Lavandou-83	Le Lavandou	43.165610296	6.412312779	57.59	3	4	5759	réponses par habitant
83069	2.097826867	0.209782687	2.097826867	2.097826867	0	Hyères-83	Hyères	43.101871353	6.188985085	557.72	105	117	55772	réponses par habitant
83067	0.2	0.02	0.2	0.231857176	49	Gonfaron-83	Gonfaron	43.320649488	6.300368624	50	1	1	4313	réponses par habitant
83066	0.2	0.02	0.2	0.561167228	50	Ginasservis-83	Ginasservis	43.659291815	5.837520006	50	0	1	1782	réponses par habitant
83065	0.2	0.02	0.2	0.391083301	49	Gassin-83	Gassin	43.239206522	6.586175186	50	1	1	2557	réponses par habitant
83064	0.373901664	0.037390166	0.373901664	0.373901664	49	Garéoult-83	Garéoult	43.340327133	6.040876260	53.49	1	2	5349	réponses par habitant
83063	0.2	0.02	0.2	0.531349628	49	La Garde-Freinet-83	La Garde-Freinet	43.323416032	6.466937868	50	1	1	1882	réponses par habitant
83062	2.337929941	0.233792994	2.337929941	2.337929941	0	La Garde-83	La Garde	43.126327938	6.018981647	252.36	53	59	25236	réponses par habitant
83061	1.805597352	0.180559735	1.805597352	1.805597352	0	Fréjus-83	Fréjus	43.471955811	6.763615974	531.68	80	96	53168	réponses par habitant
83059	0.2	0.02	0.2	0.348310693	49	Forcalqueiret-83	Forcalqueiret	43.336639255	6.091414106	50	1	1	2871	réponses par habitant
83058	0.463177397	0.04	0.463177397	0.463177397	48	Flayosc-83	Flayosc	43.542212098	6.362757210	50	2	2	4318	réponses par habitant
83055	0.2	0.017448962	0.2	0.174489618	49	Fayence-83	Fayence	43.610334582	6.678432799	57.31	1	1	5731	réponses par habitant
83054	1.026459854	0.102645985	1.026459854	1.026459854	43	La Farlède-83	La Farlède	43.161536301	6.042753255	87.68	7	9	8768	réponses par habitant
83053	0.2	0.02	0.2	0.430107527	49	Évenos-83	Évenos	43.186242177	5.873040135	50	1	1	2325	réponses par habitant
83050	1.298279779	0.129827978	1.298279779	1.298279779	15	Draguignan-83	Draguignan	43.535751328	6.454365692	400.53	35	52	40053	réponses par habitant
83049	4.646175840	0.464617584	4.646175840	4.646175840	19	Cuers-83	Cuers	43.241164550	6.068563505	111.92	31	52	11192	réponses par habitant
83048	1.053185887	0.08	1.053185887	1.053185887	46	La Croix-Valmer-83	La Croix-Valmer	43.195189072	6.586281360	50	4	4	3798	réponses par habitant
83047	3.627232143	0.362723214	3.627232143	3.627232143	0	La Crau-83	La Crau	43.163520742	6.092683516	179.2	58	65	17920	réponses par habitant
83042	0.249335106	0.024933511	0.249335106	0.249335106	48	Cogolin-83	Cogolin	43.246455051	6.521922341	120.32	2	3	12032	réponses par habitant
83036	0.2	0.013755158	0.2	0.137551582	49	Cavalaire-sur-Mer-83	Cavalaire-sur-Mer	43.181905581	6.521217214	72.7	1	1	7270	réponses par habitant
83035	0.516129032	0.04	0.516129032	0.516129032	50	Le Castellet-83	Le Castellet	43.227667489	5.765601084	50	0	2	3875	réponses par habitant
83034	0.812512696	0.081251270	0.812512696	0.812512696	42	Carqueiranne-83	Carqueiranne	43.097194014	6.071737934	98.46	8	8	9846	réponses par habitant
83029	0.631911532	0.04	0.631911532	0.631911532	49	Callian-83	Callian	43.612518023	6.757088950	50	1	2	3165	réponses par habitant
83023	0.171448166	0.017144817	0.171448166	0.171448166	47	Brignoles-83	Brignoles	43.399294190	6.077402443	174.98	3	3	17498	réponses par habitant
83021	0.732064422	0.04	0.732064422	0.732064422	50	Bras-83	Bras	43.470408165	5.958532544	50	0	2	2732	réponses par habitant
83019	0.2	0.012528188	0.2	0.125281884	49	Bormes-les-Mimosas-83	Bormes-les-Mimosas	43.162272210	6.349569873	79.82	1	1	7982	réponses par habitant
83016	4.046902563	0.404690256	4.046902563	4.046902563	25	Le Beausset-83	Le Beausset	43.206931556	5.820200861	96.37	25	39	9637	réponses par habitant
83009	1.314845804	0.131484580	1.314845804	1.314845804	43	Bandol-83	Bandol	43.147354452	5.747893584	83.66	7	11	8366	réponses par habitant
83004	0.281531532	0.028153153	0.281531532	0.281531532	48	Les Arcs-83	Les Arcs	43.450988211	6.489702212	71.04	2	2	7104	réponses par habitant
83001	0.728597450	0.04	0.728597450	0.728597450	48	Les Adrets-de-l'Estérel-83	Les Adrets-de-l'Estérel	43.535622928	6.811087967	50	2	2	2745	réponses par habitant
82195	0.2	0.02	0.2	1.364256480	50	Villemade-82	Villemade	44.080122730	1.289914584	50	0	1	733	réponses par habitant
82190	0.632244468	0.06	0.632244468	0.632244468	47	Verdun-sur-Garonne-82	Verdun-sur-Garonne	43.849145335	1.228456427	50	3	3	4745	réponses par habitant
82186	0.2	0.019058510	0.2	0.190585096	49	Valence-82	Valence	44.106833210	0.897921093	52.47	1	1	5247	réponses par habitant
82179	0.2	0.02	0.2	0.454545455	49	Septfonds-82	Septfonds	44.176575965	1.617393087	50	1	1	2200	réponses par habitant
82161	0.799573561	0.06	0.799573561	0.799573561	47	Saint-Étienne-de-Tulmont-82	Saint-Étienne-de-Tulmont	44.044673154	1.457032850	50	3	3	3752	réponses par habitant
82152	0.2	0.02	0.2	2.439024390	49	Saint-Aignan-82	Saint-Aignan	44.023197454	1.073356057	50	1	1	410	réponses par habitant
82136	0.2	0.02	0.2	0.610873549	49	Orgueil-82	Orgueil	43.899168693	1.397059786	50	1	1	1637	réponses par habitant
82132	0.2	0.02	0.2	0.838926174	49	Montricoux-82	Montricoux	44.103505773	1.624189428	50	1	1	1192	réponses par habitant
82125	8	1.349849135	8	13.498491345	0	Montech-82	Montech	43.952412412	1.237646756	62.97	78	85	6297	réponses par habitant
82123	0.2	0.02	0.2	0.778816199	49	Montbartier-82	Montbartier	43.914877760	1.286624564	50	1	1	1284	réponses par habitant
82121	5.691218318	0.569121832	5.691218318	5.691218318	0	Montauban-82	Montauban	44.022259458	1.364086365	604.44	311	344	60444	réponses par habitant
82112	0.237116661	0.023711666	0.237116661	0.237116661	47	Moissac-82	Moissac	44.126251808	1.098347580	126.52	3	3	12652	réponses par habitant
82105	0.2	0.02	0.2	0.747943156	50	Mas-Grenier-82	Mas-Grenier	43.895387967	1.181342346	50	0	1	1337	réponses par habitant
82101	0.2	0.02	0.2	0.865051903	49	Malause-82	Malause	44.089988421	0.971913032	50	1	1	1156	réponses par habitant
82075	0.2	0.02	0.2	0.246548323	49	Grisolles-82	Grisolles	43.822448374	1.286708305	50	1	1	4056	réponses par habitant
82057	0.2	0.02	0.2	1.650165017	49	Fabas-82	Fabas	43.861792636	1.339124653	50	1	1	606	réponses par habitant
82044	0.2	0.02	0.2	0.602772755	49	Corbarieu-82	Corbarieu	43.941242413	1.381259633	50	1	1	1659	réponses par habitant
82038	0.2	0.02	0.2	0.692041522	50	Caylus-82	Caylus	44.242063730	1.753608694	50	0	1	1445	réponses par habitant
82037	0.723798494	0.072379849	0.723798494	0.723798494	47	Caussade-82	Caussade	44.156542187	1.543511615	69.08	3	5	6908	réponses par habitant
82026	0.2	0.02	0.2	1.636661211	49	Bruniquel-82	Bruniquel	44.052198034	1.660097198	50	1	1	611	réponses par habitant
